[{
  "title": "Bank BRI ATM - RSUD. SUMEDANG",
  "subTitle": null,
  "price": null,
  "menu": null,
  "categoryName": "ATM",
  "address": "Kantor Pos, Jl. Prabu Geusan Ulun, Kotakulon, Kec. Sumedang Sel., Kabupaten Sumedang, Jawa Barat 45311, Indonesia",
  "locatedIn": null,
  "neighborhood": "Kantor Pos, Jl. Prabu Geusan Ulun",
  "street": "Kantor Pos, Jl. Prabu Geusan Ulun",
  "city": "Sumedang Regency",
  "postalCode": "45311",
  "state": "West Java",
  "countryCode": "ID",
  "plusCode": "4WRC+VC Kotakulon, Sumedang Regency, West Java, Indonesia",
  "website": "https://bri.co.id/",
  "phone": "+62 21 14017",
  "temporarilyClosed": false,
  "location": {
    "lat": -6.8578387,
    "lng": 107.9210544
  },
  "permanentlyClosed": false,
  "totalScore": null,
  "isAdvertisement": false,
  "rank": 20,
  "placeId": "ChIJxX86MfHRaC4R3X4LHAwlAhU",
  "categories": [
    "ATM"
  ],
  "cid": "1513813158690258653",
  "url": "https://www.google.com/maps/place/Bank+BRI+ATM+-+RSUD.+SUMEDANG/@-6.8578387,107.9210544,17z/data=!3m1!4b1!4m5!3m4!1s0x2e68d1f1313a7fc5:0x1502250c1c0b7edd!8m2!3d-6.8578383!4d107.9210521?hl=en",
  "searchPageUrl": "https://www.google.com/maps/search/ATM+Sumedang/@20.9880135,82.7525294,5z?hl=en",
  "searchString": "ATM Sumedang",
  "scrapedAt": "2022-04-19T05:10:24.273Z",
  "reviewsCount": 0,
  "reviewsDistribution": {
    "oneStar": 0,
    "twoStar": 0,
    "threeStar": 0,
    "fourStar": 0,
    "fiveStar": 0
  },
  "reviews": [],
  "orderBy": []
},
{
  "title": "Atm Bank BjB",
  "subTitle": null,
  "price": null,
  "menu": null,
  "categoryName": "ATM",
  "address": "Jl. Tampomas, Kotakaler, Kec. Sumedang Utara, Kabupaten Sumedang, Jawa Barat 45621, Indonesia",
  "locatedIn": null,
  "neighborhood": "Jl. Tampomas",
  "street": "Jl. Tampomas",
  "city": "Sumedang Regency",
  "postalCode": "45621",
  "state": "West Java",
  "countryCode": "ID",
  "plusCode": "5W4G+86 Kotakaler, Sumedang Regency, West Java, Indonesia",
  "website": "http://www.bankbjb.co.id/",
  "phone": null,
  "temporarilyClosed": true,
  "location": {
    "lat": -6.8441928,
    "lng": 107.925502
  },
  "permanentlyClosed": false,
  "totalScore": null,
  "isAdvertisement": false,
  "rank": 8,
  "placeId": "ChIJCaec2DnRaC4RQLSfrokcN58",
  "categories": [
    "ATM"
  ],
  "cid": "11472669953415427136",
  "url": "https://www.google.com/maps/place/Atm+Bank+BjB/@-6.8441928,107.9233133,17z/data=!3m1!4b1!4m5!3m4!1s0x2e68d139d89ca709:0x9f371c89ae9fb440!8m2!3d-6.8441928!4d107.9255021?hl=en",
  "searchPageUrl": "https://www.google.com/maps/search/ATM+Sumedang/@20.9880135,82.7525294,5z?hl=en",
  "searchString": "ATM Sumedang",
  "scrapedAt": "2022-04-19T05:10:24.357Z",
  "reviewsCount": 0,
  "reviewsDistribution": {
    "oneStar": 0,
    "twoStar": 0,
    "threeStar": 0,
    "fourStar": 0,
    "fiveStar": 0
  },
  "reviews": [],
  "orderBy": []
},
{
  "title": "ATM CIMB Niaga Sumedang",
  "subTitle": null,
  "price": null,
  "menu": null,
  "categoryName": "ATM",
  "address": "Abdul Rahman, Jl. Mayor Abdurahman No.63, Kotakaler, Sumedang Utara, Sumedang Regency, West Java 43251, Indonesia",
  "locatedIn": null,
  "neighborhood": "Abdul Rahman, Jl. Mayor Abdurahman No.63",
  "street": "Abdul Rahman, Jl. Mayor Abdurahman No.63",
  "city": "Sumedang Regency",
  "postalCode": "43251",
  "state": "West Java",
  "countryCode": "ID",
  "plusCode": "5W3F+WP Kotakaler, Sumedang Regency, West Java, Indonesia",
  "website": null,
  "phone": "+62 261 14041",
  "temporarilyClosed": false,
  "location": {
    "lat": -6.8452282,
    "lng": 107.9242872
  },
  "permanentlyClosed": false,
  "totalScore": 5,
  "isAdvertisement": false,
  "rank": 7,
  "placeId": "ChIJw6Bt8zbRaC4RpOyU-B6rxOM",
  "categories": [
    "ATM"
  ],
  "cid": "16412431091552808100",
  "url": "https://www.google.com/maps/place/ATM+CIMB+Niaga+Sumedang/@-6.8452282,107.9220985,17z/data=!3m1!4b1!4m5!3m4!1s0x2e68d136f36da0c3:0xe3c4ab1ef894eca4!8m2!3d-6.845229!4d107.9242901?hl=en",
  "searchPageUrl": "https://www.google.com/maps/search/ATM+Sumedang/@20.9880135,82.7525294,5z?hl=en",
  "searchString": "ATM Sumedang",
  "scrapedAt": "2022-04-19T05:10:27.559Z",
  "reviewsCount": 2,
  "reviewsDistribution": {
    "oneStar": 0,
    "twoStar": 0,
    "threeStar": 0,
    "fourStar": 0,
    "fiveStar": 2
  },
  "reviews": [],
  "orderBy": []
},
{
  "title": "ATM BPR Karyajatnika Sadaya. PT",
  "subTitle": null,
  "price": null,
  "menu": null,
  "categoryName": "ATM",
  "address": "Jl. Mayor Abdurahman No.22, Situ, Kec. Sumedang Utara, Kabupaten Sumedang, Jawa Barat 45621, Indonesia",
  "locatedIn": null,
  "neighborhood": "Jl. Mayor Abdurahman No.22",
  "street": "Jl. Mayor Abdurahman No.22",
  "city": "Sumedang Regency",
  "postalCode": "45621",
  "state": "West Java",
  "countryCode": "ID",
  "plusCode": "5W7G+7V Situ, Sumedang Regency, West Java, Indonesia",
  "website": "https://www.bprks.co.id/",
  "phone": "+62 22 4556600",
  "temporarilyClosed": false,
  "location": {
    "lat": -6.836847,
    "lng": 107.9272
  },
  "permanentlyClosed": false,
  "totalScore": 5,
  "isAdvertisement": false,
  "rank": 19,
  "placeId": "ChIJkeRurzXRaC4ROACVUDzcUMQ",
  "categories": [
    "ATM"
  ],
  "cid": "14146048581178818616",
  "url": "https://www.google.com/maps/place/ATM+BPR+Karyajatnika+Sadaya.+PT/@-6.836847,107.9250113,17z/data=!3m1!4b1!4m5!3m4!1s0x2e68d135af6ee491:0xc450dc3c50950038!8m2!3d-6.8368327!4d107.927176?hl=en",
  "searchPageUrl": "https://www.google.com/maps/search/ATM+Sumedang/@20.9880135,82.7525294,5z?hl=en",
  "searchString": "ATM Sumedang",
  "scrapedAt": "2022-04-19T05:10:29.254Z",
  "reviewsCount": 1,
  "reviewsDistribution": {
    "oneStar": 0,
    "twoStar": 0,
    "threeStar": 0,
    "fourStar": 0,
    "fiveStar": 1
  },
  "reviews": [],
  "orderBy": []
},
{
  "title": "ATM Bank BCA 2335-Sumedang",
  "subTitle": null,
  "price": null,
  "menu": null,
  "categoryName": "Bank",
  "address": "Jl. Mayor Abdurahman, Kotakaler, Sumedang, Kabupaten Sumedang, Jawa Barat 45322, Indonesia",
  "locatedIn": null,
  "neighborhood": "Jl. Mayor Abdurahman",
  "street": "Jl. Mayor Abdurahman",
  "city": "Sumedang Regency",
  "postalCode": "45322",
  "state": "West Java",
  "countryCode": "ID",
  "plusCode": "5W6G+CM Kotakaler, Sumedang Regency, West Java, Indonesia",
  "website": null,
  "phone": "+62 21 0500888",
  "temporarilyClosed": false,
  "location": {
    "lat": -6.8389326,
    "lng": 107.9267133
  },
  "permanentlyClosed": false,
  "totalScore": 4,
  "isAdvertisement": false,
  "rank": 18,
  "placeId": "ChIJV-aLeTbRaC4RcCBELeYeMMY",
  "categories": [
    "ATM",
    "Bank"
  ],
  "cid": "14280948392342593648",
  "url": "https://www.google.com/maps/place/ATM+Bank+BCA+2335-Sumedang/@-6.8389326,107.9245246,17z/data=!3m1!4b1!4m5!3m4!1s0x2e68d136798be657:0xc6301ee62d442070!8m2!3d-6.838964!4d107.9267565?hl=en",
  "searchPageUrl": "https://www.google.com/maps/search/ATM+Sumedang/@20.9880135,82.7525294,5z?hl=en",
  "searchString": "ATM Sumedang",
  "scrapedAt": "2022-04-19T05:10:31.772Z",
  "reviewsCount": 1,
  "reviewsDistribution": {
    "oneStar": 0,
    "twoStar": 0,
    "threeStar": 0,
    "fourStar": 1,
    "fiveStar": 0
  },
  "reviews": [],
  "orderBy": []
},
{
  "title": "ATM Danamon Sumedang Abdulrachman",
  "subTitle": null,
  "price": null,
  "menu": null,
  "categoryName": "Bank",
  "address": "Jl. Mayor Abdulrachman No.129, Kebonkalapa, Kec. Cisarua, Kabupaten Sumedang, Jawa Barat 45322, Indonesia",
  "locatedIn": null,
  "neighborhood": "Jl. Mayor Abdulrachman No.129",
  "street": "Jl. Mayor Abdulrachman No.129",
  "city": "Sumedang Regency",
  "postalCode": "45322",
  "state": "West Java",
  "countryCode": "ID",
  "plusCode": null,
  "website": null,
  "phone": "+62 261 204416",
  "temporarilyClosed": false,
  "location": {
    "lat": -6.832858,
    "lng": 107.9531836
  },
  "permanentlyClosed": false,
  "totalScore": null,
  "isAdvertisement": false,
  "rank": 17,
  "placeId": "ChIJsyeQkDXRaC4RFCw-G-jD1sA",
  "categories": [
    "ATM",
    "Bank"
  ],
  "cid": "13895509101955132436",
  "url": "https://www.google.com/maps/place/ATM+Danamon+Sumedang+Abdulrachman/@-6.8328579,107.9444288,15z/data=!3m1!4b1!4m5!3m4!1s0x2e68d135909027b3:0xc0d6c3e81b3e2c14!8m2!3d-6.832858!4d107.9531836?hl=en",
  "searchPageUrl": "https://www.google.com/maps/search/ATM+Sumedang/@20.9880135,82.7525294,5z?hl=en",
  "searchString": "ATM Sumedang",
  "scrapedAt": "2022-04-19T05:10:44.763Z",
  "reviewsCount": 0,
  "reviewsDistribution": {
    "oneStar": 0,
    "twoStar": 0,
    "threeStar": 0,
    "fourStar": 0,
    "fiveStar": 0
  },
  "reviews": [],
  "orderBy": []
},
{
  "title": "Bank BRI ATM - KC SUMEDANG",
  "subTitle": null,
  "price": null,
  "menu": null,
  "categoryName": "ATM",
  "address": "Jl. Prabu Geusan Ulun No.10, RT.03, Regol Wetan, Kec. Sumedang Sel., Kabupaten Sumedang, Jawa Barat 45312, Indonesia",
  "locatedIn": null,
  "neighborhood": "Jl. Prabu Geusan Ulun No.10, RT.03",
  "street": "Jl. Prabu Geusan Ulun No.10, RT.03",
  "city": "Sumedang Regency",
  "postalCode": "45312",
  "state": "West Java",
  "countryCode": "ID",
  "plusCode": "4WQ9+P5 Regol Wetan, Sumedang Regency, West Java, Indonesia",
  "website": "https://bri.co.id/",
  "phone": "+62 21 14017",
  "temporarilyClosed": false,
  "location": {
    "lat": -6.86065,
    "lng": 107.91791
  },
  "permanentlyClosed": false,
  "totalScore": null,
  "isAdvertisement": false,
  "rank": 13,
  "placeId": "ChIJcbqV2pLRaC4RwlCFDauP2KA",
  "categories": [
    "ATM"
  ],
  "cid": "11590171605866991810",
  "url": "https://www.google.com/maps/place/Bank+BRI+ATM+-+KC+SUMEDANG/@-6.86065,107.9157213,17z/data=!3m1!4b1!4m5!3m4!1s0x2e68d192da95ba71:0xa0d88fab0d8550c2!8m2!3d-6.8606205!4d107.9179092?hl=en",
  "searchPageUrl": "https://www.google.com/maps/search/ATM+Sumedang/@20.9880135,82.7525294,5z?hl=en",
  "searchString": "ATM Sumedang",
  "scrapedAt": "2022-04-19T05:10:52.968Z",
  "reviewsCount": 0,
  "reviewsDistribution": {
    "oneStar": 0,
    "twoStar": 0,
    "threeStar": 0,
    "fourStar": 0,
    "fiveStar": 0
  },
  "reviews": [],
  "orderBy": []
},
{
  "title": "ATM Bank BJB SPBU Karapyak",
  "subTitle": null,
  "price": null,
  "menu": null,
  "categoryName": "Bank or ATM",
  "address": "Jl. Prabu Gajah Agung Kel.Situ, Sumedang Utara, Situ, Kec. Sumedang Utara, Kabupaten Sumedang, Jawa Barat 45323, Indonesia",
  "locatedIn": null,
  "neighborhood": "Jl. Prabu Gajah Agung Kel.Situ, Sumedang Utara",
  "street": "Jl. Prabu Gajah Agung Kel.Situ, Sumedang Utara",
  "city": "Sumedang Regency",
  "postalCode": "45323",
  "state": "West Java",
  "countryCode": "ID",
  "plusCode": "5W88+2X Situ, Sumedang Regency, West Java, Indonesia",
  "website": "http://www.bankbjb.co.id/",
  "phone": "+62 22 4234868",
  "temporarilyClosed": false,
  "location": {
    "lat": -6.834955,
    "lng": 107.917428
  },
  "permanentlyClosed": false,
  "totalScore": 3.6,
  "isAdvertisement": false,
  "rank": 16,
  "placeId": "ChIJKahcA8vWaC4RMGCZNKCpa9Q",
  "categories": [
    "Bank or ATM",
    "ATM",
    "Bank"
  ],
  "cid": "15306514264091090992",
  "url": "https://www.google.com/maps/place/ATM+Bank+BJB+SPBU+Karapyak/@-6.834955,107.917428,17z/data=!3m1!4b1!4m5!3m4!1s0x2e68d6cb035ca829:0xd46ba9a034996030!8m2!3d-6.8349518!4d107.9174323?hl=en",
  "searchPageUrl": "https://www.google.com/maps/search/ATM+Sumedang/@20.9880135,82.7525294,5z?hl=en",
  "searchString": "ATM Sumedang",
  "scrapedAt": "2022-04-19T05:11:07.865Z",
  "reviewsCount": 7,
  "reviewsDistribution": {
    "oneStar": 0,
    "twoStar": 1,
    "threeStar": 3,
    "fourStar": 1,
    "fiveStar": 2
  },
  "reviews": [],
  "orderBy": []
},
{
  "title": "ATM Bank Negara Indonesia (Persero) Tbk. PT",
  "subTitle": null,
  "price": null,
  "menu": null,
  "categoryName": "ATM",
  "address": "Jl. Prabu Geusan Ulun No.113 - 115, Kotakulon, Kec. Sumedang Sel., Kabupaten Sumedang, Jawa Barat 45311, Indonesia",
  "locatedIn": "BNI Sumedang",
  "neighborhood": "Jl. Prabu Geusan Ulun No.113 - 115",
  "street": "Jl. Prabu Geusan Ulun No.113 - 115",
  "city": "Sumedang Regency",
  "postalCode": "45311",
  "state": "West Java",
  "countryCode": "ID",
  "plusCode": "4WWC+WX Kotakulon, Sumedang Regency, West Java, Indonesia",
  "website": null,
  "phone": "+62 262 500046",
  "temporarilyClosed": false,
  "location": {
    "lat": -6.8526948,
    "lng": 107.9224774
  },
  "permanentlyClosed": false,
  "totalScore": 3,
  "isAdvertisement": false,
  "rank": 11,
  "placeId": "ChIJhTIoyT3RaC4RHtbsub4pzj8",
  "categories": [
    "ATM"
  ],
  "cid": "4597658168731686430",
  "url": "https://www.google.com/maps/place/ATM+Bank+Negara+Indonesia+(Persero)+Tbk.+PT/@-6.8526948,107.9202887,17z/data=!3m1!4b1!4m5!3m4!1s0x2e68d13dc9283285:0x3fce29beb9ecd61e!8m2!3d-6.85269!4d107.9224506?hl=en",
  "searchPageUrl": "https://www.google.com/maps/search/ATM+Sumedang/@20.9880135,82.7525294,5z?hl=en",
  "searchString": "ATM Sumedang",
  "scrapedAt": "2022-04-19T05:11:10.452Z",
  "reviewsCount": 2,
  "reviewsDistribution": {
    "oneStar": 1,
    "twoStar": 0,
    "threeStar": 0,
    "fourStar": 0,
    "fiveStar": 1
  },
  "reviews": [],
  "orderBy": []
},
{
  "title": "ATM Muamalat Yogya Dept Store Sumedang",
  "subTitle": null,
  "price": null,
  "menu": null,
  "categoryName": "Bank",
  "address": "Jl. Prabu Geusan Ulun, Kotakulon, Sumedang, Kabupaten Sumedang, Jawa Barat 45311, Indonesia",
  "locatedIn": null,
  "neighborhood": "Jl. Prabu Geusan Ulun",
  "street": "Jl. Prabu Geusan Ulun",
  "city": "Sumedang Regency",
  "postalCode": "45311",
  "state": "West Java",
  "countryCode": "ID",
  "plusCode": "4WWC+6V Kotakulon, Sumedang Regency, West Java, Indonesia",
  "website": null,
  "phone": "+62 21 0500016",
  "temporarilyClosed": false,
  "location": {
    "lat": -6.8544393,
    "lng": 107.9221661
  },
  "permanentlyClosed": false,
  "totalScore": null,
  "isAdvertisement": false,
  "rank": 12,
  "placeId": "ChIJt-sH9T3RaC4R2KMNIk6JyyU",
  "categories": [
    "ATM",
    "Bank"
  ],
  "cid": "2723421368347370456",
  "url": "https://www.google.com/maps/place/ATM+Muamalat+Yogya+Dept+Store+Sumedang/@-6.8544393,107.9199774,17z/data=!3m1!4b1!4m5!3m4!1s0x2e68d13df507ebb7:0x25cb894e220da3d8!8m2!3d-6.8544393!4d107.9221661?hl=en",
  "searchPageUrl": "https://www.google.com/maps/search/ATM+Sumedang/@20.9880135,82.7525294,5z?hl=en",
  "searchString": "ATM Sumedang",
  "scrapedAt": "2022-04-19T05:11:12.352Z",
  "reviewsCount": 0,
  "reviewsDistribution": {
    "oneStar": 0,
    "twoStar": 0,
    "threeStar": 0,
    "fourStar": 0,
    "fiveStar": 0
  },
  "reviews": [],
  "orderBy": []
},
{
  "title": "ATM Bank Saudara",
  "subTitle": null,
  "price": null,
  "menu": null,
  "categoryName": "ATM",
  "address": "Kantor Cabang Pembantu Sumedang, JL. Prabu Geusan Ulun, No. 76, 45311, Kotakulon, Kec. Sumedang Sel., Kabupaten Sumedang, Jawa Barat 45311, Indonesia",
  "locatedIn": null,
  "neighborhood": "Kantor Cabang Pembantu Sumedang, JL. Prabu Geusan Ulun, No. 76, 45311",
  "street": "Kantor Cabang Pembantu Sumedang, JL. Prabu Geusan Ulun, No. 76, 45311",
  "city": "Sumedang Regency",
  "postalCode": "45311",
  "state": "West Java",
  "countryCode": "ID",
  "plusCode": "4WWC+GR Kotakulon, Sumedang Regency, West Java, Indonesia",
  "website": null,
  "phone": "+62 21 3451906",
  "temporarilyClosed": false,
  "location": {
    "lat": -6.8536784,
    "lng": 107.9220487
  },
  "permanentlyClosed": false,
  "totalScore": null,
  "isAdvertisement": false,
  "rank": 14,
  "placeId": "ChIJkZBOkz3RaC4RLTQdH3Fwkzg",
  "categories": [
    "ATM"
  ],
  "cid": "4076725718856053805",
  "url": "https://www.google.com/maps/place/ATM+Bank+Saudara/@-6.8536784,107.91986,17z/data=!3m1!4b1!4m5!3m4!1s0x2e68d13d934e9091:0x389370711f1d342d!8m2!3d-6.8536751!4d107.9220339?hl=en",
  "searchPageUrl": "https://www.google.com/maps/search/ATM+Sumedang/@20.9880135,82.7525294,5z?hl=en",
  "searchString": "ATM Sumedang",
  "scrapedAt": "2022-04-19T05:11:14.072Z",
  "reviewsCount": 0,
  "reviewsDistribution": {
    "oneStar": 0,
    "twoStar": 0,
    "threeStar": 0,
    "fourStar": 0,
    "fiveStar": 0
  },
  "reviews": [],
  "orderBy": []
},
{
  "title": "ATM Bank BCA 0947-Sumedang",
  "subTitle": null,
  "price": null,
  "menu": null,
  "categoryName": "Bank",
  "address": "Jl. Mayor Abdurahman, Kotakaler, Sumedang, Kabupaten Sumedang, Jawa Barat 45322, Indonesia",
  "locatedIn": null,
  "neighborhood": "Jl. Mayor Abdurahman",
  "street": "Jl. Mayor Abdurahman",
  "city": "Sumedang Regency",
  "postalCode": "45322",
  "state": "West Java",
  "countryCode": "ID",
  "plusCode": "5W6G+7V Kotakaler, Sumedang Regency, West Java, Indonesia",
  "website": null,
  "phone": "+62 21 0500888",
  "temporarilyClosed": false,
  "location": {
    "lat": -6.839293,
    "lng": 107.927146
  },
  "permanentlyClosed": false,
  "totalScore": null,
  "isAdvertisement": false,
  "rank": 15,
  "placeId": "ChIJV-aLeTbRaC4RT-hVpUsFnFE",
  "categories": [
    "ATM",
    "Bank"
  ],
  "cid": "5880581035893581903",
  "url": "https://www.google.com/maps/place/ATM+Bank+BCA+0947-Sumedang/@-6.839293,107.927146,17z/data=!3m1!4b1!4m5!3m4!1s0x2e68d136798be657:0x519c054ba555e84f!8m2!3d-6.8392611!4d107.9270866?hl=en",
  "searchPageUrl": "https://www.google.com/maps/search/ATM+Sumedang/@20.9880135,82.7525294,5z?hl=en",
  "searchString": "ATM Sumedang",
  "scrapedAt": "2022-04-19T05:11:15.471Z",
  "reviewsCount": 0,
  "reviewsDistribution": {
    "oneStar": 0,
    "twoStar": 0,
    "threeStar": 0,
    "fourStar": 0,
    "fiveStar": 0
  },
  "reviews": [],
  "orderBy": []
},
{
  "title": "Bank BRI ATM - ASIA PLAZA SUMEDANG",
  "subTitle": null,
  "price": null,
  "menu": null,
  "categoryName": "ATM",
  "address": "Jl. Mayor Abdurahman No.225, Kotakaler, Kec. Sumedang Utara, Kabupaten Sumedang, Jawa Barat, Indonesia",
  "locatedIn": null,
  "neighborhood": "Jl. Mayor Abdurahman No.225",
  "street": "Jl. Mayor Abdurahman No.225",
  "city": "Sumedang Regency",
  "postalCode": null,
  "state": "West Java",
  "countryCode": "ID",
  "plusCode": "5W7H+RG Kotakaler, Sumedang Regency, West Java, Indonesia",
  "website": "https://bri.co.id/",
  "phone": "+62 21 14017",
  "temporarilyClosed": false,
  "location": {
    "lat": -6.8354575,
    "lng": 107.92884
  },
  "permanentlyClosed": false,
  "totalScore": null,
  "isAdvertisement": false,
  "rank": 10,
  "placeId": "ChIJZ6CcmQvRaC4R_XL0VuGIrEk",
  "categories": [
    "ATM"
  ],
  "cid": "5308768562170852093",
  "url": "https://www.google.com/maps/place/Bank+BRI+ATM+-+ASIA+PLAZA+SUMEDANG/@-6.8354575,107.9266513,17z/data=!3m1!4b1!4m5!3m4!1s0x2e68d10b999ca067:0x49ac88e156f472fd!8m2!3d-6.8354575!4d107.92884?hl=en",
  "searchPageUrl": "https://www.google.com/maps/search/ATM+Sumedang/@20.9880135,82.7525294,5z?hl=en",
  "searchString": "ATM Sumedang",
  "scrapedAt": "2022-04-19T05:11:17.179Z",
  "reviewsCount": 0,
  "reviewsDistribution": {
    "oneStar": 0,
    "twoStar": 0,
    "threeStar": 0,
    "fourStar": 0,
    "fiveStar": 0
  },
  "reviews": [],
  "orderBy": []
},
{
  "title": "ATM 24 Jam Kantor Kas BJB Pemkab Sumedang",
  "subTitle": null,
  "price": null,
  "menu": null,
  "categoryName": "ATM",
  "address": "Jl. Prabu Geusan Ulun No.36, Regol Wetan, Kec. Sumedang Sel., Kabupaten Sumedang, Jawa Barat 45311, Indonesia",
  "locatedIn": null,
  "neighborhood": "Jl. Prabu Geusan Ulun No.36",
  "street": "Jl. Prabu Geusan Ulun No.36",
  "city": "Sumedang Regency",
  "postalCode": "45311",
  "state": "West Java",
  "countryCode": "ID",
  "plusCode": "4WQC+R5 Regol Wetan, Sumedang Regency, West Java, Indonesia",
  "website": null,
  "phone": null,
  "temporarilyClosed": false,
  "location": {
    "lat": -6.8604379,
    "lng": 107.920457
  },
  "permanentlyClosed": false,
  "totalScore": 3,
  "isAdvertisement": false,
  "rank": 9,
  "placeId": "ChIJLSwm2BDRaC4R5HnoMPYXhoY",
  "categories": [
    "ATM"
  ],
  "cid": "9693461594111506916",
  "url": "https://www.google.com/maps/place/ATM+24+Jam+Kantor+Kas+BJB+Pemkab+Sumedang/@-6.8604379,107.9182683,17z/data=!3m1!4b1!4m5!3m4!1s0x2e68d110d8262c2d:0x868617f630e879e4!8m2!3d-6.8604379!4d107.920457?hl=en",
  "searchPageUrl": "https://www.google.com/maps/search/ATM+Sumedang/@20.9880135,82.7525294,5z?hl=en",
  "searchString": "ATM Sumedang",
  "scrapedAt": "2022-04-19T05:11:19.177Z",
  "reviewsCount": 2,
  "reviewsDistribution": {
    "oneStar": 0,
    "twoStar": 0,
    "threeStar": 2,
    "fourStar": 0,
    "fiveStar": 0
  },
  "reviews": [],
  "orderBy": []
},
{
  "title": "ATM PT. Bank Negara Indonesia",
  "subTitle": null,
  "price": null,
  "menu": null,
  "categoryName": "ATM",
  "address": "Rumah Sakit Umum Daerah Sumedang, Jl. Prabu Geusan Ulun No.41, Kotakulon, Kec. Sumedang Sel., Kabupaten Sumedang, Jawa Barat 45311, Indonesia",
  "locatedIn": null,
  "neighborhood": "Rumah Sakit Umum Daerah Sumedang, Jl. Prabu Geusan Ulun No.41",
  "street": "Rumah Sakit Umum Daerah Sumedang, Jl. Prabu Geusan Ulun No.41",
  "city": "Sumedang Regency",
  "postalCode": "45311",
  "state": "West Java",
  "countryCode": "ID",
  "plusCode": "4WRC+PG Kotakulon, Sumedang Regency, West Java, Indonesia",
  "website": null,
  "phone": null,
  "temporarilyClosed": false,
  "location": {
    "lat": -6.8582121,
    "lng": 107.9212692
  },
  "permanentlyClosed": false,
  "totalScore": 5,
  "isAdvertisement": false,
  "rank": 6,
  "placeId": "ChIJs9Hg5RbRaC4R6K4VgdIjfdw",
  "categories": [
    "ATM"
  ],
  "cid": "15887894447448764136",
  "url": "https://www.google.com/maps/place/ATM+PT.+Bank+Negara+Indonesia/@-6.8582121,107.9190805,17z/data=!3m1!4b1!4m5!3m4!1s0x2e68d116e5e0d1b3:0xdc7d23d28115aee8!8m2!3d-6.8582157!4d107.9213148?hl=en",
  "searchPageUrl": "https://www.google.com/maps/search/ATM+Sumedang/@20.9880135,82.7525294,5z?hl=en",
  "searchString": "ATM Sumedang",
  "scrapedAt": "2022-04-19T05:11:33.152Z",
  "reviewsCount": 2,
  "reviewsDistribution": {
    "oneStar": 0,
    "twoStar": 0,
    "threeStar": 0,
    "fourStar": 0,
    "fiveStar": 2
  },
  "reviews": [],
  "orderBy": []
},
{
  "title": "ATM Muamalat Capem Sumedang",
  "subTitle": null,
  "price": null,
  "menu": null,
  "categoryName": "Bank",
  "address": "Jl. Prabu Geusan Ulun No.69, Kotakulon, Kec. Sumedang Sel., Kabupaten Sumedang, Jawa Barat 45322, Indonesia",
  "locatedIn": null,
  "neighborhood": "Jl. Prabu Geusan Ulun No.69",
  "street": "Jl. Prabu Geusan Ulun No.69",
  "city": "Sumedang Regency",
  "postalCode": "45322",
  "state": "West Java",
  "countryCode": "ID",
  "plusCode": "4WVC+JP Kotakulon, Sumedang Regency, West Java, Indonesia",
  "website": null,
  "phone": "+62 21 0500016",
  "temporarilyClosed": false,
  "location": {
    "lat": -6.8559287,
    "lng": 107.9218315
  },
  "permanentlyClosed": false,
  "totalScore": 5,
  "isAdvertisement": false,
  "rank": 5,
  "placeId": "ChIJ_______TaC4RbIYx0u9aOB8",
  "categories": [
    "ATM",
    "Bank"
  ],
  "cid": "2249647999941707372",
  "url": "https://www.google.com/maps/place/ATM+Muamalat+Capem+Sumedang/@-6.8559287,107.9218315,17z/data=!3m1!4b1!4m5!3m4!1s0x2e68d3ffffffffff:0x1f385aefd231866c!8m2!3d-6.8559287!4d107.9218315?hl=en",
  "searchPageUrl": "https://www.google.com/maps/search/ATM+Sumedang/@20.9880135,82.7525294,5z?hl=en",
  "searchString": "ATM Sumedang",
  "scrapedAt": "2022-04-19T05:11:35.076Z",
  "reviewsCount": 1,
  "reviewsDistribution": {
    "oneStar": 0,
    "twoStar": 0,
    "threeStar": 0,
    "fourStar": 0,
    "fiveStar": 1
  },
  "reviews": [],
  "orderBy": []
},
{
  "title": "ATM CIMB Niaga (Plaza Asia Sumedang)",
  "subTitle": null,
  "price": null,
  "menu": null,
  "categoryName": "ATM",
  "address": "Jl. Mayor Abdurahman No.225, Kotakaler, Kec. Sumedang Utara, Kabupaten Sumedang, Jawa Barat 45322, Indonesia",
  "locatedIn": null,
  "neighborhood": "Jl. Mayor Abdurahman No.225",
  "street": "Jl. Mayor Abdurahman No.225",
  "city": "Sumedang Regency",
  "postalCode": "45322",
  "state": "West Java",
  "countryCode": "ID",
  "plusCode": "5W7H+MP Kotakaler, Sumedang Regency, West Java, Indonesia",
  "website": null,
  "phone": "+62 21 14041",
  "temporarilyClosed": false,
  "location": {
    "lat": -6.8357827,
    "lng": 107.9293565
  },
  "permanentlyClosed": false,
  "totalScore": 5,
  "isAdvertisement": false,
  "rank": 4,
  "placeId": "ChIJP3p6fTXRaC4R8CZltpxlgwI",
  "categories": [
    "ATM"
  ],
  "cid": "181100133774337776",
  "url": "https://www.google.com/maps/place/ATM+CIMB+Niaga+(Plaza+Asia+Sumedang)/@-6.8357827,107.9271678,17z/data=!3m1!4b1!4m5!3m4!1s0x2e68d1357d7a7a3f:0x283659cb66526f0!8m2!3d-6.8357827!4d107.9293565?hl=en",
  "searchPageUrl": "https://www.google.com/maps/search/ATM+Sumedang/@20.9880135,82.7525294,5z?hl=en",
  "searchString": "ATM Sumedang",
  "scrapedAt": "2022-04-19T05:11:35.276Z",
  "reviewsCount": 2,
  "reviewsDistribution": {
    "oneStar": 0,
    "twoStar": 0,
    "threeStar": 0,
    "fourStar": 0,
    "fiveStar": 2
  },
  "reviews": [],
  "orderBy": []
},
{
  "title": "ATM Bank Sinarmas KCP Sumedang",
  "subTitle": null,
  "price": null,
  "menu": null,
  "categoryName": "ATM",
  "address": "Jl. Mayor Abdurahman No.199, Kotakaler, Kec. Sumedang Utara, Kabupaten Sumedang, Jawa Barat 45621, Indonesia",
  "locatedIn": null,
  "neighborhood": "Jl. Mayor Abdurahman No.199",
  "street": "Jl. Mayor Abdurahman No.199",
  "city": "Sumedang Regency",
  "postalCode": "45621",
  "state": "West Java",
  "countryCode": "ID",
  "plusCode": "5W7H+69 Kotakaler, Sumedang Regency, West Java, Indonesia",
  "website": "https://www.banksinarmas.com/",
  "phone": null,
  "temporarilyClosed": false,
  "location": {
    "lat": -6.8369725,
    "lng": 107.92838
  },
  "permanentlyClosed": false,
  "totalScore": 3,
  "isAdvertisement": false,
  "rank": 3,
  "placeId": "ChIJnyUdmjXRaC4ROe360GmtZfc",
  "categories": [
    "ATM"
  ],
  "cid": "17826845370005253433",
  "url": "https://www.google.com/maps/place/ATM+Bank+Sinarmas+KCP+Sumedang/@-6.8369725,107.9261913,17z/data=!3m1!4b1!4m5!3m4!1s0x2e68d1359a1d259f:0xf765ad69d0faed39!8m2!3d-6.8369725!4d107.92838?hl=en",
  "searchPageUrl": "https://www.google.com/maps/search/ATM+Sumedang/@20.9880135,82.7525294,5z?hl=en",
  "searchString": "ATM Sumedang",
  "scrapedAt": "2022-04-19T05:11:37.481Z",
  "reviewsCount": 2,
  "reviewsDistribution": {
    "oneStar": 1,
    "twoStar": 0,
    "threeStar": 0,
    "fourStar": 0,
    "fiveStar": 1
  },
  "reviews": [],
  "orderBy": []
},
{
  "title": "ATM Bank Internasional Indonesia (BII)",
  "subTitle": null,
  "price": null,
  "menu": null,
  "categoryName": "ATM",
  "address": "Jl. Mayor Abdurahman No.110, Kotakaler, Kec. Sumedang Utara, Kabupaten Sumedang, Jawa Barat 45621, Indonesia",
  "locatedIn": null,
  "neighborhood": "Jl. Mayor Abdurahman No.110",
  "street": "Jl. Mayor Abdurahman No.110",
  "city": "Sumedang Regency",
  "postalCode": "45621",
  "state": "West Java",
  "countryCode": "ID",
  "plusCode": "5W5G+C7 Kotakaler, Sumedang Regency, West Java, Indonesia",
  "website": null,
  "phone": null,
  "temporarilyClosed": true,
  "location": {
    "lat": -6.8413916,
    "lng": 107.9257185
  },
  "permanentlyClosed": false,
  "totalScore": null,
  "isAdvertisement": false,
  "rank": 2,
  "placeId": "ChIJ9aSG9jbRaC4RYlp73lBj1Hc",
  "categories": [
    "ATM"
  ],
  "cid": "8634635584557242978",
  "url": "https://www.google.com/maps/place/ATM+Bank+Internasional+Indonesia+(BII)/@-6.8413916,107.9235298,17z/data=!3m1!4b1!4m5!3m4!1s0x2e68d136f686a4f5:0x77d46350de7b5a62!8m2!3d-6.8413916!4d107.9257185?hl=en",
  "searchPageUrl": "https://www.google.com/maps/search/ATM+Sumedang/@20.9880135,82.7525294,5z?hl=en",
  "searchString": "ATM Sumedang",
  "scrapedAt": "2022-04-19T05:11:45.853Z",
  "reviewsCount": 0,
  "reviewsDistribution": {
    "oneStar": 0,
    "twoStar": 0,
    "threeStar": 0,
    "fourStar": 0,
    "fiveStar": 0
  },
  "reviews": [],
  "orderBy": []
},
{
  "title": "ATM Bank BJB Kantor Cabang Sumedang",
  "subTitle": null,
  "price": null,
  "menu": null,
  "categoryName": "ATM",
  "address": "Jl. Raya Cirebon - Bandung No.89, Regol Wetan, Kec. Sumedang Sel., Kabupaten Sumedang, Jawa Barat 45311, Indonesia",
  "locatedIn": null,
  "neighborhood": "Jl. Raya Cirebon - Bandung No.89",
  "street": "Jl. Raya Cirebon - Bandung No.89",
  "city": "Sumedang Regency",
  "postalCode": "45311",
  "state": "West Java",
  "countryCode": "ID",
  "plusCode": "4WWC+7V Regol Wetan, Sumedang Regency, West Java, Indonesia",
  "website": "http://www.bankbjb.co.id/",
  "phone": null,
  "temporarilyClosed": false,
  "location": {
    "lat": -6.8543011,
    "lng": 107.9221669
  },
  "permanentlyClosed": false,
  "totalScore": 4,
  "isAdvertisement": false,
  "rank": 1,
  "placeId": "ChIJ_xzyij3RaC4RpeeL7zxUQiM",
  "categories": [
    "ATM"
  ],
  "cid": "2540685760484075429",
  "url": "https://www.google.com/maps/place/ATM+Bank+BJB+Kantor+Cabang+Sumedang/@-6.8543011,107.9221669,17z/data=!3m1!4b1!4m5!3m4!1s0x2e68d13d8af21cff:0x2342543cef8be7a5!8m2!3d-6.8542978!4d107.9221528?hl=en",
  "searchPageUrl": "https://www.google.com/maps/search/ATM+Sumedang/@20.9880135,82.7525294,5z?hl=en",
  "searchString": "ATM Sumedang",
  "scrapedAt": "2022-04-19T05:11:46.660Z",
  "reviewsCount": 2,
  "reviewsDistribution": {
    "oneStar": 0,
    "twoStar": 0,
    "threeStar": 1,
    "fourStar": 0,
    "fiveStar": 1
  },
  "reviews": [],
  "orderBy": []
},
{
  "title": "Tiket Pesawat Padmaloka",
  "subTitle": null,
  "price": null,
  "menu": null,
  "categoryName": "ATM",
  "address": "Jl. Pagarbetis No.27, RT.01/RW.3, Cipameungpeuk, Kec. Sumedang Sel., Kabupaten Sumedang, Jawa Barat 45315, Indonesia",
  "locatedIn": "Padmaloka Tour & Travel",
  "neighborhood": "Jl. Pagarbetis No.27, RT.01/RW.3",
  "street": "Jl. Pagarbetis No.27, RT.01/RW.3",
  "city": "Sumedang Regency",
  "postalCode": "45315",
  "state": "West Java",
  "countryCode": "ID",
  "plusCode": "4WRG+C4 Cipameungpeuk, Sumedang Regency, West Java, Indonesia",
  "website": null,
  "phone": "+62 812-1470-8855",
  "temporarilyClosed": false,
  "location": {
    "lat": -6.858993,
    "lng": 107.9252991
  },
  "permanentlyClosed": false,
  "totalScore": 5,
  "isAdvertisement": false,
  "rank": 61,
  "placeId": "ChIJY_-v5j3RaC4Rhs1IvJUmMY4",
  "categories": [
    "ATM",
    "Event ticket seller",
    "Food manufacturer",
    "Tour agency"
  ],
  "cid": "10246013051795459462",
  "url": "https://www.google.com/maps/place/Tiket+Pesawat+Padmaloka/@-6.858993,107.9231104,17z/data=!3m1!4b1!4m5!3m4!1s0x2e68d13de6afff63:0x8e312695bc48cd86!8m2!3d-6.858993!4d107.9252991?hl=en",
  "searchPageUrl": "https://www.google.com/maps/search/ATM+Sumedang/@-6.8486723,107.8462382,12z/data=!4m2!2m1!6e2?hl=en",
  "searchString": "ATM Sumedang",
  "scrapedAt": "2022-04-19T05:12:15.695Z",
  "reviewsCount": 1,
  "reviewsDistribution": {
    "oneStar": 0,
    "twoStar": 0,
    "threeStar": 0,
    "fourStar": 0,
    "fiveStar": 1
  },
  "reviews": [],
  "orderBy": []
},
{
  "title": "Bank BTPN",
  "subTitle": null,
  "price": null,
  "menu": null,
  "categoryName": "Bank",
  "address": "Jl. Mayor Abdurahman No.36, Kotakaler, Kec. Sumedang Utara, Kabupaten Sumedang, Jawa Barat 45621, Indonesia",
  "locatedIn": null,
  "neighborhood": "Jl. Mayor Abdurahman No.36",
  "street": "Jl. Mayor Abdurahman No.36",
  "city": "Sumedang Regency",
  "postalCode": "45621",
  "state": "West Java",
  "countryCode": "ID",
  "plusCode": "5W3F+XW Kotakaler, Sumedang Regency, West Java, Indonesia",
  "website": "https://www.btpn.com/",
  "phone": null,
  "temporarilyClosed": false,
  "location": {
    "lat": -6.8451042,
    "lng": 107.924791
  },
  "permanentlyClosed": false,
  "totalScore": null,
  "isAdvertisement": false,
  "rank": 80,
  "placeId": "ChIJZX9C5jnRaC4RjH9jquIaELY",
  "categories": [
    "ATM",
    "Bank",
    "Banking and finance",
    "Insurance"
  ],
  "cid": "13119015275353833356",
  "url": "https://www.google.com/maps/place/Bank+BTPN/@-6.8451042,107.9226023,17z/data=!3m1!4b1!4m5!3m4!1s0x2e68d139e6427f65:0xb6101ae2aa637f8c!8m2!3d-6.8450577!4d107.9247091?hl=en",
  "searchPageUrl": "https://www.google.com/maps/search/ATM+Sumedang/@-6.8486723,107.8462382,12z/data=!4m2!2m1!6e2?hl=en",
  "searchString": "ATM Sumedang",
  "scrapedAt": "2022-04-19T05:12:25.071Z",
  "reviewsCount": 0,
  "reviewsDistribution": {
    "oneStar": 0,
    "twoStar": 0,
    "threeStar": 0,
    "fourStar": 0,
    "fiveStar": 0
  },
  "reviews": [],
  "orderBy": []
},
{
  "title": "Bank Tabungan Pensiunan Nasional",
  "subTitle": null,
  "price": null,
  "menu": null,
  "categoryName": "Bank",
  "address": "Jl. Raya Cirebon - Bandung No.79, Kotakulon, Kec. Sumedang Sel., Kabupaten Sumedang, Jawa Barat 45311, Indonesia",
  "locatedIn": null,
  "neighborhood": "Jl. Raya Cirebon - Bandung No.79",
  "street": "Jl. Raya Cirebon - Bandung No.79",
  "city": "Sumedang Regency",
  "postalCode": "45311",
  "state": "West Java",
  "countryCode": "ID",
  "plusCode": "4WWC+4Q Kotakulon, Sumedang Regency, West Java, Indonesia",
  "website": "http://www.btpn.com/",
  "phone": "+62 261 201428",
  "temporarilyClosed": false,
  "location": {
    "lat": -6.8547161,
    "lng": 107.9219044
  },
  "permanentlyClosed": false,
  "totalScore": 3.7,
  "isAdvertisement": false,
  "rank": 79,
  "placeId": "ChIJUdcxNzzRaC4R1mIkbF-Rzuo",
  "categories": [
    "Bank"
  ],
  "cid": "16919620689099776726",
  "url": "https://www.google.com/maps/place/Bank+Tabungan+Pensiunan+Nasional/@-6.8547161,107.9197157,17z/data=!3m1!4b1!4m5!3m4!1s0x2e68d13c3731d751:0xeace915f6c2462d6!8m2!3d-6.8547429!4d107.9220436?hl=en",
  "searchPageUrl": "https://www.google.com/maps/search/ATM+Sumedang/@-6.8486723,107.8462382,12z/data=!4m2!2m1!6e2?hl=en",
  "searchString": "ATM Sumedang",
  "scrapedAt": "2022-04-19T05:12:33.886Z",
  "reviewsCount": 3,
  "reviewsDistribution": {
    "oneStar": 0,
    "twoStar": 0,
    "threeStar": 2,
    "fourStar": 0,
    "fiveStar": 1
  },
  "reviews": [],
  "orderBy": []
},
{
  "title": "ANT Bank BCA 7656-Sumedang",
  "subTitle": null,
  "price": null,
  "menu": null,
  "categoryName": "Bank",
  "address": "Jl. Mayor Abdurahman, Kotakaler, Sumedang, Kabupaten Sumedang, Jawa Barat 45322, Indonesia",
  "locatedIn": null,
  "neighborhood": "Jl. Mayor Abdurahman",
  "street": "Jl. Mayor Abdurahman",
  "city": "Sumedang Regency",
  "postalCode": "45322",
  "state": "West Java",
  "countryCode": "ID",
  "plusCode": "5W6G+7V Kotakaler, Sumedang Regency, West Java, Indonesia",
  "website": null,
  "phone": "+62 21 0500888",
  "temporarilyClosed": false,
  "location": {
    "lat": -6.839293,
    "lng": 107.927146
  },
  "permanentlyClosed": false,
  "totalScore": 3,
  "isAdvertisement": false,
  "rank": 78,
  "placeId": "ChIJV-aLeTbRaC4R-ouKBhS-rjw",
  "categories": [
    "Bank"
  ],
  "cid": "4372641281441696762",
  "url": "https://www.google.com/maps/place/ANT+Bank+BCA+7656-Sumedang/@-6.839293,107.9249573,17z/data=!3m1!4b1!4m5!3m4!1s0x2e68d136798be657:0x3caebe14068a8bfa!8m2!3d-6.8392611!4d107.9270866?hl=en",
  "searchPageUrl": "https://www.google.com/maps/search/ATM+Sumedang/@-6.8486723,107.8462382,12z/data=!4m2!2m1!6e2?hl=en",
  "searchString": "ATM Sumedang",
  "scrapedAt": "2022-04-19T05:12:42.272Z",
  "reviewsCount": 1,
  "reviewsDistribution": {
    "oneStar": 0,
    "twoStar": 0,
    "threeStar": 1,
    "fourStar": 0,
    "fiveStar": 0
  },
  "reviews": [],
  "orderBy": []
},
{
  "title": "ATM bank bjb Pasar Grosir Tanah Abang",
  "subTitle": null,
  "price": null,
  "menu": null,
  "categoryName": "Bank",
  "address": "Pasar Tanah Abang Blok A Lt. Semi Lower Ground, Kec, Tanah Abang, Central Jakarta City, Jakarta, Indonesia             Pasar Tanah Abang Blok A Lt. Semi Lower Ground, Kec, Kecamatan Tanah Abang, Kota Jakarta Pusat, Daerah Khusus Ibukota Jakarta",
  "locatedIn": null,
  "neighborhood": "Pasar Tanah Abang Blok A Lt. Semi Lower Ground, Kec",
  "street": "Pasar Tanah Abang Blok A Lt. Semi Lower Ground, Kec",
  "city": "Central Jakarta City",
  "postalCode": null,
  "state": "Jakarta",
  "countryCode": "ID",
  "plusCode": "4WV9+4C Kotakulon, Sumedang Regency, West Java, Indonesia",
  "website": "http://www.bankbjb.co.id/",
  "phone": null,
  "temporarilyClosed": true,
  "location": {
    "lat": -6.8572009,
    "lng": 107.9185529
  },
  "permanentlyClosed": false,
  "totalScore": null,
  "isAdvertisement": false,
  "rank": 77,
  "placeId": "ChIJ76ZHVm_RaC4R5vGL0vITMAo",
  "categories": [
    "Bank"
  ],
  "cid": "734108672896791014",
  "url": "https://www.google.com/maps/place/ATM+bank+bjb+Pasar+Grosir+Tanah+Abang/@-6.8572009,107.9163642,17z/data=!3m1!4b1!4m5!3m4!1s0x2e68d16f5647a6ef:0xa3013f2d28bf1e6!8m2!3d-6.8572021!4d107.9185529?hl=en",
  "searchPageUrl": "https://www.google.com/maps/search/ATM+Sumedang/@-6.8486723,107.8462382,12z/data=!4m2!2m1!6e2?hl=en",
  "searchString": "ATM Sumedang",
  "scrapedAt": "2022-04-19T05:12:50.077Z",
  "reviewsCount": 0,
  "reviewsDistribution": {
    "oneStar": 0,
    "twoStar": 0,
    "threeStar": 0,
    "fourStar": 0,
    "fiveStar": 0
  },
  "reviews": [],
  "orderBy": []
},
{
  "title": "CIMB Niaga Sumedang",
  "subTitle": null,
  "price": null,
  "menu": null,
  "categoryName": "Bank",
  "address": "Jl. Mayor Abdurahman No.63, Kotakaler, Kec. Sumedang Utara, Kabupaten Sumedang, Jawa Barat 45621, Indonesia",
  "locatedIn": null,
  "neighborhood": "Jl. Mayor Abdurahman No.63",
  "street": "Jl. Mayor Abdurahman No.63",
  "city": "Sumedang Regency",
  "postalCode": "45621",
  "state": "West Java",
  "countryCode": "ID",
  "plusCode": "5W3F+VQ Kotakaler, Sumedang Regency, West Java, Indonesia",
  "website": null,
  "phone": "+62 261 201025",
  "temporarilyClosed": false,
  "location": {
    "lat": -6.8452718,
    "lng": 107.9243918
  },
  "permanentlyClosed": false,
  "totalScore": 3.9,
  "isAdvertisement": false,
  "rank": 76,
  "placeId": "ChIJx0_x7zbRaC4RsI2wt_4ewx0",
  "categories": [
    "ATM",
    "Bank"
  ],
  "cid": "2144591926910815664",
  "url": "https://www.google.com/maps/place/CIMB+Niaga+Sumedang/@-6.8452718,107.9222031,17z/data=!3m1!4b1!4m5!3m4!1s0x2e68d136eff14fc7:0x1dc31efeb7b08db0!8m2!3d-6.8452718!4d107.9243918?hl=en",
  "searchPageUrl": "https://www.google.com/maps/search/ATM+Sumedang/@-6.8486723,107.8462382,12z/data=!4m2!2m1!6e2?hl=en",
  "searchString": "ATM Sumedang",
  "scrapedAt": "2022-04-19T05:12:59.667Z",
  "reviewsCount": 17,
  "reviewsDistribution": {
    "oneStar": 2,
    "twoStar": 0,
    "threeStar": 3,
    "fourStar": 4,
    "fiveStar": 8
  },
  "reviews": [],
  "orderBy": []
},
{
  "title": "ATM BRI",
  "subTitle": null,
  "price": null,
  "menu": null,
  "categoryName": "ATM",
  "address": "Jalan Raya Cimalaka Cipadung, Jl. Desa Nyalindung No.17, Citimun, Kec. Cimalaka, Kabupaten Sumedang, Jawa Barat 45353, Indonesia",
  "locatedIn": null,
  "neighborhood": "Jalan Raya Cimalaka Cipadung, Jl. Desa Nyalindung No.17",
  "street": "Jalan Raya Cimalaka Cipadung, Jl. Desa Nyalindung No.17",
  "city": "Sumedang Regency",
  "postalCode": "45353",
  "state": "West Java",
  "countryCode": "ID",
  "plusCode": "6W4M+MP Citimun, Sumedang Regency, West Java, Indonesia",
  "website": "https://bri.co.id/",
  "phone": "+62 21 1500017",
  "temporarilyClosed": false,
  "location": {
    "lat": -6.793307,
    "lng": 107.9343279
  },
  "permanentlyClosed": false,
  "totalScore": 3.7,
  "isAdvertisement": false,
  "rank": 75,
  "placeId": "ChIJa2M0EorWaC4R7yQAJAmPWEU",
  "categories": [
    "ATM"
  ],
  "cid": "4996901055989032175",
  "url": "https://www.google.com/maps/place/ATM+BRI/@-6.793307,107.9321392,17z/data=!3m1!4b1!4m5!3m4!1s0x2e68d68a1234636b:0x45588f09240024ef!8m2!3d-6.793307!4d107.9343279?hl=en",
  "searchPageUrl": "https://www.google.com/maps/search/ATM+Sumedang/@-6.8486723,107.8462382,12z/data=!4m2!2m1!6e2?hl=en",
  "searchString": "ATM Sumedang",
  "scrapedAt": "2022-04-19T05:13:07.699Z",
  "reviewsCount": 3,
  "reviewsDistribution": {
    "oneStar": 1,
    "twoStar": 0,
    "threeStar": 0,
    "fourStar": 0,
    "fiveStar": 2
  },
  "reviews": [],
  "orderBy": []
},
{
  "title": "BRI KC Sumedang",
  "subTitle": null,
  "price": null,
  "menu": null,
  "categoryName": "Bank",
  "address": "Jl. Prabu Geusan Ulun No.10, Regol Wetan, Kec. Sumedang Sel., Kabupaten Sumedang, Jawa Barat 45311, Indonesia",
  "locatedIn": null,
  "neighborhood": "Jl. Prabu Geusan Ulun No.10",
  "street": "Jl. Prabu Geusan Ulun No.10",
  "city": "Sumedang Regency",
  "postalCode": "45311",
  "state": "West Java",
  "countryCode": "ID",
  "plusCode": "4WQ9+P4 Regol Wetan, Sumedang Regency, West Java, Indonesia",
  "website": "https://bri.co.id/",
  "phone": "+62 261 201556",
  "temporarilyClosed": false,
  "location": {
    "lat": -6.8606472,
    "lng": 107.9178376
  },
  "permanentlyClosed": false,
  "totalScore": 4.1,
  "isAdvertisement": false,
  "rank": 74,
  "placeId": "ChIJf9UXphDRaC4RRLVn8F6LL94",
  "categories": [
    "ATM",
    "Bank"
  ],
  "cid": "16010168440201917764",
  "url": "https://www.google.com/maps/place/BRI+KC+Sumedang/@-6.8606472,107.9156489,17z/data=!3m1!4b1!4m5!3m4!1s0x2e68d110a617d57f:0xde2f8b5ef067b544!8m2!3d-6.8606472!4d107.9178431?hl=en",
  "searchPageUrl": "https://www.google.com/maps/search/ATM+Sumedang/@-6.8486723,107.8462382,12z/data=!4m2!2m1!6e2?hl=en",
  "searchString": "ATM Sumedang",
  "scrapedAt": "2022-04-19T05:13:15.577Z",
  "reviewsCount": 50,
  "reviewsDistribution": {
    "oneStar": 4,
    "twoStar": 2,
    "threeStar": 6,
    "fourStar": 12,
    "fiveStar": 26
  },
  "reviews": [],
  "orderBy": []
},
{
  "title": "Ihsan Fotocopy",
  "subTitle": null,
  "price": null,
  "menu": null,
  "categoryName": "Mobile money agent",
  "address": "Jl. Cut Nyak Dien, Regol Wetan, Kec. Sumedang Sel., Kabupaten Sumedang, Jawa Barat 45311, Indonesia",
  "locatedIn": null,
  "neighborhood": "Jl. Cut Nyak Dien",
  "street": "Jl. Cut Nyak Dien",
  "city": "Sumedang Regency",
  "postalCode": "45311",
  "state": "West Java",
  "countryCode": "ID",
  "plusCode": "4WQF+V3 Regol Wetan, Sumedang Regency, West Java, Indonesia",
  "website": null,
  "phone": null,
  "temporarilyClosed": false,
  "location": {
    "lat": -6.8602912,
    "lng": 107.922726
  },
  "permanentlyClosed": false,
  "totalScore": 4.7,
  "isAdvertisement": false,
  "rank": 73,
  "placeId": "ChIJyahkTxHRaC4RQFSG8SnnVuI",
  "categories": [
    "ATM",
    "Mobile money agent"
  ],
  "cid": "16309477267900617792",
  "url": "https://www.google.com/maps/place/Ihsan+Fotocopy/@-6.8602912,107.9205373,17z/data=!3m1!4b1!4m5!3m4!1s0x2e68d1114f64a8c9:0xe256e729f1865440!8m2!3d-6.8602912!4d107.922726?hl=en",
  "searchPageUrl": "https://www.google.com/maps/search/ATM+Sumedang/@-6.8486723,107.8462382,12z/data=!4m2!2m1!6e2?hl=en",
  "searchString": "ATM Sumedang",
  "scrapedAt": "2022-04-19T05:13:23.590Z",
  "reviewsCount": 3,
  "reviewsDistribution": {
    "oneStar": 0,
    "twoStar": 0,
    "threeStar": 0,
    "fourStar": 1,
    "fiveStar": 2
  },
  "reviews": [],
  "orderBy": []
},
{
  "title": "Panin Bank - Sumedang",
  "subTitle": null,
  "price": null,
  "menu": null,
  "categoryName": "Bank",
  "address": "Jl. Mayor Abdurahman No.180, Kotakaler, Kec. Sumedang Utara, Kabupaten Sumedang, Jawa Barat 45621, Indonesia",
  "locatedIn": null,
  "neighborhood": "Jl. Mayor Abdurahman No.180",
  "street": "Jl. Mayor Abdurahman No.180",
  "city": "Sumedang Regency",
  "postalCode": "45621",
  "state": "West Java",
  "countryCode": "ID",
  "plusCode": "5W6G+HW Kotakaler, Sumedang Regency, West Java, Indonesia",
  "website": "https://www.banksinarmas.com/",
  "phone": "+62 261 201625",
  "temporarilyClosed": false,
  "location": {
    "lat": -6.8385653,
    "lng": 107.9273319
  },
  "permanentlyClosed": false,
  "totalScore": 4.2,
  "isAdvertisement": false,
  "rank": 72,
  "placeId": "ChIJx0_x7zbRaC4R1MnfApr2Ylc",
  "categories": [
    "ATM",
    "Bank"
  ],
  "cid": "6296866370350991828",
  "url": "https://www.google.com/maps/place/Panin+Bank+-+Sumedang/@-6.8385653,107.9251432,17z/data=!3m1!4b1!4m5!3m4!1s0x2e68d136eff14fc7:0x5762f69a02dfc9d4!8m2!3d-6.8385653!4d107.9273319?hl=en",
  "searchPageUrl": "https://www.google.com/maps/search/ATM+Sumedang/@-6.8486723,107.8462382,12z/data=!4m2!2m1!6e2?hl=en",
  "searchString": "ATM Sumedang",
  "scrapedAt": "2022-04-19T05:13:31.555Z",
  "reviewsCount": 15,
  "reviewsDistribution": {
    "oneStar": 1,
    "twoStar": 0,
    "threeStar": 2,
    "fourStar": 4,
    "fiveStar": 8
  },
  "reviews": [],
  "orderBy": []
},
{
  "title": "ATM BJB",
  "subTitle": null,
  "price": null,
  "menu": null,
  "categoryName": "ATM",
  "address": "Jl. Sumedang-Kadipaten, Cimalaka, Kec. Cimalaka, Kabupaten Sumedang, Jawa Barat 45353, Indonesia",
  "locatedIn": null,
  "neighborhood": "Jl. Sumedang-Kadipaten",
  "street": "Jl. Sumedang-Kadipaten",
  "city": "Sumedang Regency",
  "postalCode": "45353",
  "state": "West Java",
  "countryCode": "ID",
  "plusCode": "5WPX+8Q Cimalaka, Sumedang Regency, West Java, Indonesia",
  "website": null,
  "phone": null,
  "temporarilyClosed": true,
  "location": {
    "lat": -6.8141711,
    "lng": 107.9494725
  },
  "permanentlyClosed": false,
  "totalScore": 5,
  "isAdvertisement": false,
  "rank": 71,
  "placeId": "ChIJ_X9ft6HWaC4Ri_Pvm48rxaU",
  "categories": [
    "ATM"
  ],
  "cid": "11945001482466620299",
  "url": "https://www.google.com/maps/place/ATM+BJB/@-6.8141711,107.9472838,17z/data=!3m1!4b1!4m5!3m4!1s0x2e68d6a1b75f7ffd:0xa5c52b8f9beff38b!8m2!3d-6.8141563!4d107.949475?hl=en",
  "searchPageUrl": "https://www.google.com/maps/search/ATM+Sumedang/@-6.8486723,107.8462382,12z/data=!4m2!2m1!6e2?hl=en",
  "searchString": "ATM Sumedang",
  "scrapedAt": "2022-04-19T05:13:38.918Z",
  "reviewsCount": 1,
  "reviewsDistribution": {
    "oneStar": 0,
    "twoStar": 0,
    "threeStar": 0,
    "fourStar": 0,
    "fiveStar": 1
  },
  "reviews": [],
  "orderBy": []
},
{
  "title": "CDM Bank BCA 919A-Sumedang",
  "subTitle": null,
  "price": null,
  "menu": null,
  "categoryName": "Bank",
  "address": "Jl. Mayor Abdurahman, Kotakaler, Sumedang, Kabupaten Sumedang, Jawa Barat 45322, Indonesia",
  "locatedIn": null,
  "neighborhood": "Jl. Mayor Abdurahman",
  "street": "Jl. Mayor Abdurahman",
  "city": "Sumedang Regency",
  "postalCode": "45322",
  "state": "West Java",
  "countryCode": "ID",
  "plusCode": "5W6G+7V Kotakaler, Sumedang Regency, West Java, Indonesia",
  "website": null,
  "phone": "+62 21 0500888",
  "temporarilyClosed": false,
  "location": {
    "lat": -6.839293,
    "lng": 107.927146
  },
  "permanentlyClosed": false,
  "totalScore": null,
  "isAdvertisement": false,
  "rank": 70,
  "placeId": "ChIJV-aLeTbRaC4RSpokpqE7NVg",
  "categories": [
    "Bank"
  ],
  "cid": "6356052014566513226",
  "url": "https://www.google.com/maps/place/CDM+Bank+BCA+919A-Sumedang/@-6.839293,107.9249573,17z/data=!3m1!4b1!4m5!3m4!1s0x2e68d136798be657:0x58353ba1a6249a4a!8m2!3d-6.8392611!4d107.9270866?hl=en",
  "searchPageUrl": "https://www.google.com/maps/search/ATM+Sumedang/@-6.8486723,107.8462382,12z/data=!4m2!2m1!6e2?hl=en",
  "searchString": "ATM Sumedang",
  "scrapedAt": "2022-04-19T05:14:57.109Z",
  "reviewsCount": 0,
  "reviewsDistribution": {
    "oneStar": 0,
    "twoStar": 0,
    "threeStar": 0,
    "fourStar": 0,
    "fiveStar": 0
  },
  "reviews": [],
  "orderBy": []
},
{
  "title": "Bank BRI ATM - UNIT REGOL",
  "subTitle": null,
  "price": null,
  "menu": null,
  "categoryName": "ATM",
  "address": "5XP2+78G, Cimalaka, Sumedang Regency, West Java 45353, Indonesia             5XP2+78G, Cimalaka, Kec. Cimalaka, Kabupaten Sumedang, Jawa Barat 45353",
  "locatedIn": null,
  "neighborhood": "5XP2+78G",
  "street": "5XP2+78G",
  "city": "Sumedang Regency",
  "postalCode": "45353",
  "state": "West Java",
  "countryCode": "ID",
  "plusCode": null,
  "website": "https://bri.co.id/",
  "phone": "+62 21 14017",
  "temporarilyClosed": false,
  "location": {
    "lat": -6.8143087,
    "lng": 107.9508173
  },
  "permanentlyClosed": false,
  "totalScore": null,
  "isAdvertisement": false,
  "rank": 69,
  "placeId": "ChIJa0kkUNDXaC4RMNFgBnbWNgc",
  "categories": [
    "ATM"
  ],
  "cid": "519838609409364272",
  "url": "https://www.google.com/maps/place/Bank+BRI+ATM+-+UNIT+REGOL/@-6.8143087,107.9486286,17z/data=!3m1!4b1!4m5!3m4!1s0x2e68d7d05024496b:0x736d6760660d130!8m2!3d-6.8143198!4d107.9508155?hl=en",
  "searchPageUrl": "https://www.google.com/maps/search/ATM+Sumedang/@-6.8486723,107.8462382,12z/data=!4m2!2m1!6e2?hl=en",
  "searchString": "ATM Sumedang",
  "scrapedAt": "2022-04-19T05:15:05.122Z",
  "reviewsCount": 0,
  "reviewsDistribution": {
    "oneStar": 0,
    "twoStar": 0,
    "threeStar": 0,
    "fourStar": 0,
    "fiveStar": 0
  },
  "reviews": [],
  "orderBy": []
},
{
  "title": "ATM Bank BRI Cimalaka",
  "subTitle": null,
  "price": null,
  "menu": null,
  "categoryName": "ATM",
  "address": "Bank Rakyat Indonesia, Jl. Raya Sumedang - Cibeureum No.126, Cimalaka, Kec. Cimalaka, Kabupaten Sumedang, Jawa Barat 45353, Indonesia",
  "locatedIn": null,
  "neighborhood": "Bank Rakyat Indonesia, Jl. Raya Sumedang - Cibeureum No.126",
  "street": "Bank Rakyat Indonesia, Jl. Raya Sumedang - Cibeureum No.126",
  "city": "Sumedang Regency",
  "postalCode": "45353",
  "state": "West Java",
  "countryCode": "ID",
  "plusCode": "5XP2+5G Cimalaka, Sumedang Regency, West Java, Indonesia",
  "website": null,
  "phone": null,
  "temporarilyClosed": false,
  "location": {
    "lat": -6.8145892,
    "lng": 107.9513606
  },
  "permanentlyClosed": false,
  "totalScore": 4,
  "isAdvertisement": false,
  "rank": 68,
  "placeId": "ChIJQUPXUaDWaC4Rsy0dNsz6YCQ",
  "categories": [
    "ATM"
  ],
  "cid": "2621370738117782963",
  "url": "https://www.google.com/maps/place/ATM+Bank+BRI+Cimalaka/@-6.8145892,107.9491719,17z/data=!3m1!4b1!4m5!3m4!1s0x2e68d6a051d74341:0x2460facc361d2db3!8m2!3d-6.8145981!4d107.95136?hl=en",
  "searchPageUrl": "https://www.google.com/maps/search/ATM+Sumedang/@-6.8486723,107.8462382,12z/data=!4m2!2m1!6e2?hl=en",
  "searchString": "ATM Sumedang",
  "scrapedAt": "2022-04-19T05:15:14.006Z",
  "reviewsCount": 8,
  "reviewsDistribution": {
    "oneStar": 1,
    "twoStar": 0,
    "threeStar": 1,
    "fourStar": 2,
    "fiveStar": 4
  },
  "reviews": [],
  "orderBy": []
},
{
  "title": "Bank Mandiri Sumedang",
  "subTitle": null,
  "price": null,
  "menu": null,
  "categoryName": "Bank",
  "address": "Jl. Prabu Geusan Ulun No.137, Kotakulon, Kec. Sumedang Sel., Kabupaten Sumedang, Jawa Barat 41323, Indonesia",
  "locatedIn": null,
  "neighborhood": "Jl. Prabu Geusan Ulun No.137",
  "street": "Jl. Prabu Geusan Ulun No.137",
  "city": "Sumedang Regency",
  "postalCode": "41323",
  "state": "West Java",
  "countryCode": "ID",
  "plusCode": "4WXF+H5 Kotakulon, Sumedang Regency, West Java, Indonesia",
  "website": "http://www.bankmandiri.co.id/",
  "phone": "+62 261 210275",
  "temporarilyClosed": false,
  "location": {
    "lat": -6.8510804,
    "lng": 107.9229142
  },
  "permanentlyClosed": false,
  "totalScore": 3.8,
  "isAdvertisement": false,
  "rank": 67,
  "placeId": "ChIJvdiGykHUaC4Rk3apaqvQtxA",
  "categories": [
    "ATM",
    "Bank"
  ],
  "cid": "1204660859992372883",
  "url": "https://www.google.com/maps/place/Bank+Mandiri+Sumedang/@-6.8510804,107.9207255,17z/data=!3m1!4b1!4m5!3m4!1s0x2e68d441ca86d8bd:0x10b7d0ab6aa97693!8m2!3d-6.8510804!4d107.9229142?hl=en",
  "searchPageUrl": "https://www.google.com/maps/search/ATM+Sumedang/@-6.8486723,107.8462382,12z/data=!4m2!2m1!6e2?hl=en",
  "searchString": "ATM Sumedang",
  "scrapedAt": "2022-04-19T05:15:22.560Z",
  "reviewsCount": 31,
  "reviewsDistribution": {
    "oneStar": 4,
    "twoStar": 4,
    "threeStar": 1,
    "fourStar": 6,
    "fiveStar": 16
  },
  "reviews": [],
  "orderBy": []
},
{
  "title": "Bank Bri",
  "subTitle": null,
  "price": null,
  "menu": null,
  "categoryName": "Bank",
  "address": "Jl. R.A. Kartini, Regol Wetan, Kec. Sumedang Sel., Kabupaten Sumedang, Jawa Barat 45311, Indonesia",
  "locatedIn": null,
  "neighborhood": "Jl. R.A. Kartini",
  "street": "Jl. R.A. Kartini",
  "city": "Sumedang Regency",
  "postalCode": "45311",
  "state": "West Java",
  "countryCode": "ID",
  "plusCode": "4WRF+63 Regol Wetan, Sumedang Regency, West Java, Indonesia",
  "website": null,
  "phone": null,
  "temporarilyClosed": false,
  "location": {
    "lat": -6.859394,
    "lng": 107.9226749
  },
  "permanentlyClosed": false,
  "totalScore": 1,
  "isAdvertisement": false,
  "rank": 66,
  "placeId": "ChIJ4R-5qxbRaC4RAFnAIplyz1U",
  "categories": [
    "ATM",
    "Bank"
  ],
  "cid": "6183286815441574144",
  "url": "https://www.google.com/maps/place/Bank+Bri/@-6.859394,107.9204862,17z/data=!3m1!4b1!4m5!3m4!1s0x2e68d116abb91fe1:0x55cf729922c05900!8m2!3d-6.8593946!4d107.9226748?hl=en",
  "searchPageUrl": "https://www.google.com/maps/search/ATM+Sumedang/@-6.8486723,107.8462382,12z/data=!4m2!2m1!6e2?hl=en",
  "searchString": "ATM Sumedang",
  "scrapedAt": "2022-04-19T05:15:31.555Z",
  "reviewsCount": 1,
  "reviewsDistribution": {
    "oneStar": 1,
    "twoStar": 0,
    "threeStar": 0,
    "fourStar": 0,
    "fiveStar": 0
  },
  "reviews": [],
  "orderBy": []
},
{
  "title": "ATM bank bjb SPBU Cibungbulang",
  "subTitle": null,
  "price": null,
  "menu": null,
  "categoryName": "Bank",
  "address": "Jl. Raya Leuwiliang - Bogor No.Km 16, RT.001/007, Girimulya, Kec. Sumedang Sel., Kab. Bogor, Jawa Barat, Indonesia",
  "locatedIn": null,
  "neighborhood": "Jl. Raya Leuwiliang - Bogor No.Km 16, RT.001/007",
  "street": "Jl. Raya Leuwiliang - Bogor No.Km 16, RT.001/007",
  "city": "Kab. Bogor",
  "postalCode": null,
  "state": "West Java",
  "countryCode": "ID",
  "plusCode": "4WWC+8R Kotakulon, Sumedang Regency, West Java, Indonesia",
  "website": "http://www.bankbjb.co.id/",
  "phone": null,
  "temporarilyClosed": true,
  "location": {
    "lat": -6.854241,
    "lng": 107.922064
  },
  "permanentlyClosed": false,
  "totalScore": null,
  "isAdvertisement": false,
  "rank": 65,
  "placeId": "ChIJoYijYGXRaC4RIPArbuZO-U0",
  "categories": [
    "Bank"
  ],
  "cid": "5618608761719222304",
  "url": "https://www.google.com/maps/place/ATM+bank+bjb+SPBU+Cibungbulang/@-6.854241,107.9198753,17z/data=!3m1!4b1!4m5!3m4!1s0x2e68d16560a388a1:0x4df94ee66e2bf020!8m2!3d-6.8542116!4d107.9219602?hl=en",
  "searchPageUrl": "https://www.google.com/maps/search/ATM+Sumedang/@-6.8486723,107.8462382,12z/data=!4m2!2m1!6e2?hl=en",
  "searchString": "ATM Sumedang",
  "scrapedAt": "2022-04-19T05:15:39.489Z",
  "reviewsCount": 0,
  "reviewsDistribution": {
    "oneStar": 0,
    "twoStar": 0,
    "threeStar": 0,
    "fourStar": 0,
    "fiveStar": 0
  },
  "reviews": [],
  "orderBy": []
},
{
  "title": "BCA KCP Sumedang",
  "subTitle": null,
  "price": null,
  "menu": null,
  "categoryName": "Bank",
  "address": "Jl. Mayor Abdurahman No.181-183, Kotakaler, Kec. Sumedang Utara, Kabupaten Sumedang, Jawa Barat 45322, Indonesia",
  "locatedIn": null,
  "neighborhood": "Jl. Mayor Abdurahman No.181-183",
  "street": "Jl. Mayor Abdurahman No.181-183",
  "city": "Sumedang Regency",
  "postalCode": "45322",
  "state": "West Java",
  "countryCode": "ID",
  "plusCode": "5W6G+6H Kotakaler, Sumedang Regency, West Java, Indonesia",
  "website": "https://www.bca.co.id/",
  "phone": "+62 1 500 888",
  "temporarilyClosed": false,
  "location": {
    "lat": -6.8394042,
    "lng": 107.9264475
  },
  "permanentlyClosed": false,
  "totalScore": 4.1,
  "isAdvertisement": false,
  "rank": 64,
  "placeId": "ChIJV-aLeTbRaC4RqkmcT8_kt3k",
  "categories": [
    "ATM",
    "Bank"
  ],
  "cid": "8770730378372336042",
  "url": "https://www.google.com/maps/place/BCA+KCP+Sumedang/@-6.8394042,107.9242588,17z/data=!3m1!4b1!4m5!3m4!1s0x2e68d136798be657:0x79b7e4cf4f9c49aa!8m2!3d-6.8393932!4d107.9264304?hl=en",
  "searchPageUrl": "https://www.google.com/maps/search/ATM+Sumedang/@-6.8486723,107.8462382,12z/data=!4m2!2m1!6e2?hl=en",
  "searchString": "ATM Sumedang",
  "scrapedAt": "2022-04-19T05:15:47.658Z",
  "reviewsCount": 45,
  "reviewsDistribution": {
    "oneStar": 5,
    "twoStar": 0,
    "threeStar": 6,
    "fourStar": 9,
    "fiveStar": 25
  },
  "reviews": [],
  "orderBy": []
},
{
  "title": "AGEN BRILINK AJIMAT",
  "subTitle": null,
  "price": null,
  "menu": null,
  "categoryName": "ATM",
  "address": "Bojong, RT.4/RW.3, Rancamulya, Kec. Sumedang Utara, Kabupaten Sumedang, Jawa Barat 45321, Indonesia",
  "locatedIn": null,
  "neighborhood": "Bojong, RT.4/RW.3",
  "street": "Bojong, RT.4/RW.3",
  "city": "Sumedang Regency",
  "postalCode": "45321",
  "state": "West Java",
  "countryCode": "ID",
  "plusCode": "5W3P+JV Rancamulya, Sumedang Regency, West Java, Indonesia",
  "website": null,
  "phone": "+62 812-2494-2221",
  "temporarilyClosed": false,
  "location": {
    "lat": -6.8458763,
    "lng": 107.9372121
  },
  "permanentlyClosed": false,
  "totalScore": 5,
  "isAdvertisement": false,
  "rank": 63,
  "placeId": "ChIJs1yhcQbRaC4RatsxgYLv7PA",
  "categories": [
    "ATM"
  ],
  "cid": "17360514007398734698",
  "url": "https://www.google.com/maps/place/AGEN+BRILINK+AJIMAT/@-6.8458763,107.9350234,17z/data=!3m1!4b1!4m5!3m4!1s0x2e68d10671a15cb3:0xf0ecef828131db6a!8m2!3d-6.8458763!4d107.9372121?hl=en",
  "searchPageUrl": "https://www.google.com/maps/search/ATM+Sumedang/@-6.8486723,107.8462382,12z/data=!4m2!2m1!6e2?hl=en",
  "searchString": "ATM Sumedang",
  "scrapedAt": "2022-04-19T05:15:55.397Z",
  "reviewsCount": 2,
  "reviewsDistribution": {
    "oneStar": 0,
    "twoStar": 0,
    "threeStar": 0,
    "fourStar": 0,
    "fiveStar": 2
  },
  "reviews": [],
  "orderBy": []
},
{
  "title": "ATM Bank BRI",
  "subTitle": null,
  "price": null,
  "menu": null,
  "categoryName": "ATM",
  "address": "Jl. Raya Cirebon - Bandung No.58, Serang, Kec. Cimalaka, Kabupaten Sumedang, Jawa Barat 45353, Indonesia",
  "locatedIn": null,
  "neighborhood": "Jl. Raya Cirebon - Bandung No.58",
  "street": "Jl. Raya Cirebon - Bandung No.58",
  "city": "Sumedang Regency",
  "postalCode": "45353",
  "state": "West Java",
  "countryCode": "ID",
  "plusCode": "5WHV+XG Serang, Sumedang Regency, West Java, Indonesia",
  "website": null,
  "phone": null,
  "temporarilyClosed": false,
  "location": {
    "lat": -6.8201212,
    "lng": 107.9438662
  },
  "permanentlyClosed": false,
  "totalScore": 4,
  "isAdvertisement": false,
  "rank": 62,
  "placeId": "ChIJsxLG_qTWaC4Rf5qbeFrnmRU",
  "categories": [
    "ATM"
  ],
  "cid": "1556529521989753471",
  "url": "https://www.google.com/maps/place/ATM+Bank+BRI/@-6.8201212,107.9416775,17z/data=!3m1!4b1!4m5!3m4!1s0x2e68d6a4fec612b3:0x1599e75a789b9a7f!8m2!3d-6.8201751!4d107.943935?hl=en",
  "searchPageUrl": "https://www.google.com/maps/search/ATM+Sumedang/@-6.8486723,107.8462382,12z/data=!4m2!2m1!6e2?hl=en",
  "searchString": "ATM Sumedang",
  "scrapedAt": "2022-04-19T05:16:03.703Z",
  "reviewsCount": 1,
  "reviewsDistribution": {
    "oneStar": 0,
    "twoStar": 0,
    "threeStar": 0,
    "fourStar": 1,
    "fiveStar": 0
  },
  "reviews": [],
  "orderBy": []
},
{
  "title": "Bank BRI CRM - UNIT Cipameungpeuk",
  "subTitle": null,
  "price": null,
  "menu": null,
  "categoryName": "ATM",
  "address": "Jl. Cut Nyak Dien No.100, Regol Wetan, Kec. Sumedang Sel., KOTA BANDUNG, Jawa Barat 45311, Indonesia",
  "locatedIn": null,
  "neighborhood": "Jl. Cut Nyak Dien No.100",
  "street": "Jl. Cut Nyak Dien No.100",
  "city": "KOTA BANDUNG",
  "postalCode": "45311",
  "state": "West Java",
  "countryCode": "ID",
  "plusCode": "4WRF+88 Regol Wetan, Sumedang Regency, West Java, Indonesia",
  "website": "https://bri.co.id/",
  "phone": "+62 21 14017",
  "temporarilyClosed": false,
  "location": {
    "lat": -6.8592447,
    "lng": 107.9233197
  },
  "permanentlyClosed": false,
  "totalScore": null,
  "isAdvertisement": false,
  "rank": 59,
  "placeId": "ChIJ0Vqqj0_RaC4RPc0NYlhi4Mo",
  "categories": [
    "ATM"
  ],
  "cid": "14618792522186345789",
  "url": "https://www.google.com/maps/place/Bank+BRI+CRM+-+UNIT+Cipameungpeuk/@-6.8592447,107.921131,17z/data=!3m1!4b1!4m5!3m4!1s0x2e68d14f8faa5ad1:0xcae06258620dcd3d!8m2!3d-6.8592354!4d107.9233199?hl=en",
  "searchPageUrl": "https://www.google.com/maps/search/ATM+Sumedang/@-6.8467527,107.9000006,13z/data=!4m2!2m1!6e2?hl=en",
  "searchString": "ATM Sumedang",
  "scrapedAt": "2022-04-19T05:17:11.798Z",
  "reviewsCount": 0,
  "reviewsDistribution": {
    "oneStar": 0,
    "twoStar": 0,
    "threeStar": 0,
    "fourStar": 0,
    "fiveStar": 0
  },
  "reviews": [],
  "orderBy": []
},
{
  "title": "Kantor Kas Bank Jabar Banten (BJB) - Pemkab Sumedang",
  "subTitle": null,
  "price": null,
  "menu": null,
  "categoryName": "Bank",
  "address": "Jl. Prabu Geusan Ulun No.36, Regol Wetan, Kec. Sumedang Sel., Kabupaten Sumedang, Jawa Barat 45311, Indonesia",
  "locatedIn": null,
  "neighborhood": "Jl. Prabu Geusan Ulun No.36",
  "street": "Jl. Prabu Geusan Ulun No.36",
  "city": "Sumedang Regency",
  "postalCode": "45311",
  "state": "West Java",
  "countryCode": "ID",
  "plusCode": "4WQC+R5 Regol Wetan, Sumedang Regency, West Java, Indonesia",
  "website": "http://www.bankbjb.co.id/",
  "phone": "+62 261 201235",
  "temporarilyClosed": false,
  "location": {
    "lat": -6.8604241,
    "lng": 107.9203805
  },
  "permanentlyClosed": false,
  "totalScore": 3.6,
  "isAdvertisement": false,
  "rank": 58,
  "placeId": "ChIJFSb7KhHRaC4RjK7xbLFLJP4",
  "categories": [
    "ATM",
    "Bank"
  ],
  "cid": "18312845210204352140",
  "url": "https://www.google.com/maps/place/Kantor+Kas+Bank+Jabar+Banten+(BJB)+-+Pemkab+Sumedang/@-6.8604241,107.9181918,17z/data=!3m1!4b1!4m5!3m4!1s0x2e68d1112afb2615:0xfe244bb16cf1ae8c!8m2!3d-6.8604241!4d107.9203805?hl=en",
  "searchPageUrl": "https://www.google.com/maps/search/ATM+Sumedang/@-6.8467527,107.9000006,13z/data=!4m2!2m1!6e2?hl=en",
  "searchString": "ATM Sumedang",
  "scrapedAt": "2022-04-19T05:17:19.694Z",
  "reviewsCount": 9,
  "reviewsDistribution": {
    "oneStar": 0,
    "twoStar": 2,
    "threeStar": 2,
    "fourStar": 3,
    "fiveStar": 2
  },
  "reviews": [],
  "orderBy": []
},
{
  "title": "Mandiri Micro Business Unit Sumedang",
  "subTitle": null,
  "price": null,
  "menu": null,
  "categoryName": "Bank",
  "address": "JL. Mayor Abdul Rahman No.99, Kotakaler, Kec. Sumedang Utara, Kabupaten Sumedang, Jawa Barat, Indonesia",
  "locatedIn": null,
  "neighborhood": "JL. Mayor Abdul Rahman No.99",
  "street": "JL. Mayor Abdul Rahman No.99",
  "city": "Sumedang Regency",
  "postalCode": null,
  "state": "West Java",
  "countryCode": "ID",
  "plusCode": null,
  "website": "http://www.bankmandiri.co.id/",
  "phone": "+62 261 201523",
  "temporarilyClosed": false,
  "location": {
    "lat": -6.8473184,
    "lng": 107.9239974
  },
  "permanentlyClosed": false,
  "totalScore": null,
  "isAdvertisement": false,
  "rank": 57,
  "placeId": "ChIJx0_x7zbRaC4RyaonjYMGQTc",
  "categories": [
    "ATM",
    "Bank"
  ],
  "cid": "3981470707650898633",
  "url": "https://www.google.com/maps/place/Mandiri+Micro+Business+Unit+Sumedang/@-6.8473181,107.9064878,14z/data=!3m1!4b1!4m5!3m4!1s0x2e68d136eff14fc7:0x374106838d27aac9!8m2!3d-6.8473184!4d107.9239974?hl=en",
  "searchPageUrl": "https://www.google.com/maps/search/ATM+Sumedang/@-6.8467527,107.9000006,13z/data=!4m2!2m1!6e2?hl=en",
  "searchString": "ATM Sumedang",
  "scrapedAt": "2022-04-19T05:17:28.614Z",
  "reviewsCount": 0,
  "reviewsDistribution": {
    "oneStar": 0,
    "twoStar": 0,
    "threeStar": 0,
    "fourStar": 0,
    "fiveStar": 0
  },
  "reviews": [],
  "orderBy": []
},
{
  "title": "ATM bank bjb Indomaret Tentara Pelajar",
  "subTitle": null,
  "price": null,
  "menu": null,
  "categoryName": "Bank",
  "address": "Jl. Tentara Pelajar, Kel.Kejaksaan, Kec. Sumedang Utara, Kota Cirebon, Jawa Barat 45621, Indonesia",
  "locatedIn": null,
  "neighborhood": "Jl. Tentara Pelajar",
  "street": "Jl. Tentara Pelajar",
  "city": "Kota Cirebon",
  "postalCode": "45621",
  "state": "West Java",
  "countryCode": "ID",
  "plusCode": "5W4G+75 Kotakaler, Sumedang Regency, West Java, Indonesia",
  "website": "http://www.bankbjb.co.id/",
  "phone": null,
  "temporarilyClosed": false,
  "location": {
    "lat": -6.8443554,
    "lng": 107.9253943
  },
  "permanentlyClosed": false,
  "totalScore": null,
  "isAdvertisement": false,
  "rank": 56,
  "placeId": "ChIJ3-YW3j_RaC4RU-6YB6kh47U",
  "categories": [
    "ATM",
    "Bank"
  ],
  "cid": "13106356350438927955",
  "url": "https://www.google.com/maps/place/ATM+bank+bjb+Indomaret+Tentara+Pelajar/@-6.8443554,107.9232056,17z/data=!3m1!4b1!4m5!3m4!1s0x2e68d13fde16e6df:0xb5e321a90798ee53!8m2!3d-6.8443554!4d107.9253943?hl=en",
  "searchPageUrl": "https://www.google.com/maps/search/ATM+Sumedang/@-6.8467527,107.9000006,13z/data=!4m2!2m1!6e2?hl=en",
  "searchString": "ATM Sumedang",
  "scrapedAt": "2022-04-19T05:17:36.581Z",
  "reviewsCount": 0,
  "reviewsDistribution": {
    "oneStar": 0,
    "twoStar": 0,
    "threeStar": 0,
    "fourStar": 0,
    "fiveStar": 0
  },
  "reviews": [],
  "orderBy": []
},
{
  "title": "ATM bank bjb Paskal Hyper Square",
  "subTitle": null,
  "price": null,
  "menu": null,
  "categoryName": "Bank",
  "address": "Jl. Pasir Kaliki No.25-27, Kotakulon, Kec. Sumedang Sel., Kabupaten Sumedang, Jawa Barat 45311, Indonesia",
  "locatedIn": null,
  "neighborhood": "Jl. Pasir Kaliki No.25-27",
  "street": "Jl. Pasir Kaliki No.25-27",
  "city": "Sumedang Regency",
  "postalCode": "45311",
  "state": "West Java",
  "countryCode": "ID",
  "plusCode": "4WWC+8R Kotakulon, Sumedang Regency, West Java, Indonesia",
  "website": "http://www.bankbjb.co.id/",
  "phone": null,
  "temporarilyClosed": true,
  "location": {
    "lat": -6.854241,
    "lng": 107.922064
  },
  "permanentlyClosed": false,
  "totalScore": null,
  "isAdvertisement": false,
  "rank": 55,
  "placeId": "ChIJq__21LbRaC4R_gT_r57yTwY",
  "categories": [
    "Bank"
  ],
  "cid": "454848850759189758",
  "url": "https://www.google.com/maps/place/ATM+bank+bjb+Paskal+Hyper+Square/@-6.854241,107.9198753,17z/data=!3m1!4b1!4m5!3m4!1s0x2e68d1b6d4f6ffab:0x64ff29eafff04fe!8m2!3d-6.8542116!4d107.9219602?hl=en",
  "searchPageUrl": "https://www.google.com/maps/search/ATM+Sumedang/@-6.8467527,107.9000006,13z/data=!4m2!2m1!6e2?hl=en",
  "searchString": "ATM Sumedang",
  "scrapedAt": "2022-04-19T05:17:44.352Z",
  "reviewsCount": 0,
  "reviewsDistribution": {
    "oneStar": 0,
    "twoStar": 0,
    "threeStar": 0,
    "fourStar": 0,
    "fiveStar": 0
  },
  "reviews": [],
  "orderBy": []
},
{
  "title": "Danamon",
  "subTitle": null,
  "price": null,
  "menu": null,
  "categoryName": "Bank",
  "address": "Jl. Prabu Gajah Agung No.25, Situ, Kec. Sumedang Utara, Kabupaten Sumedang, Jawa Barat 45621, Indonesia",
  "locatedIn": null,
  "neighborhood": "Jl. Prabu Gajah Agung No.25",
  "street": "Jl. Prabu Gajah Agung No.25",
  "city": "Sumedang Regency",
  "postalCode": "45621",
  "state": "West Java",
  "countryCode": "ID",
  "plusCode": "5W9G+8H Situ, Sumedang Regency, West Java, Indonesia",
  "website": null,
  "phone": "+62 21 500090",
  "temporarilyClosed": true,
  "location": {
    "lat": -6.83167,
    "lng": 107.926419
  },
  "permanentlyClosed": false,
  "totalScore": null,
  "isAdvertisement": false,
  "rank": 54,
  "placeId": "ChIJlZ624MrWaC4ROzQIVj7UsXQ",
  "categories": [
    "ATM",
    "Bank"
  ],
  "cid": "8408735343473865787",
  "url": "https://www.google.com/maps/place/Danamon/@-6.83167,107.9242303,17z/data=!3m1!4b1!4m5!3m4!1s0x2e68d6cae0b69e95:0x74b1d43e5608343b!8m2!3d-6.83167!4d107.926419?hl=en",
  "searchPageUrl": "https://www.google.com/maps/search/ATM+Sumedang/@-6.8467527,107.9000006,13z/data=!4m2!2m1!6e2?hl=en",
  "searchString": "ATM Sumedang",
  "scrapedAt": "2022-04-19T05:17:51.952Z",
  "reviewsCount": 0,
  "reviewsDistribution": {
    "oneStar": 0,
    "twoStar": 0,
    "threeStar": 0,
    "fourStar": 0,
    "fiveStar": 0
  },
  "reviews": [],
  "orderBy": []
},
{
  "title": "Bank BRI ATM - ALFAMART CINUNGKU",
  "subTitle": null,
  "price": null,
  "menu": null,
  "categoryName": "ATM",
  "address": "Jl. Sebelas April No.16, Cikoneng, Kec. Ganeas, Kabupaten Sumedang, Jawa Barat 45356, Indonesia",
  "locatedIn": null,
  "neighborhood": "Jl. Sebelas April No.16",
  "street": "Jl. Sebelas April No.16",
  "city": "Sumedang Regency",
  "postalCode": "45356",
  "state": "West Java",
  "countryCode": "ID",
  "plusCode": "4XW3+QH Cikoneng, Sumedang Regency, West Java, Indonesia",
  "website": "https://bri.co.id/",
  "phone": "+62 21 14017",
  "temporarilyClosed": false,
  "location": {
    "lat": -6.8531084,
    "lng": 107.9539575
  },
  "permanentlyClosed": false,
  "totalScore": null,
  "isAdvertisement": false,
  "rank": 53,
  "placeId": "ChIJAZSSNU7TaC4RawaO_Yawg90",
  "categories": [
    "ATM"
  ],
  "cid": "15961795598157219435",
  "url": "https://www.google.com/maps/place/Bank+BRI+ATM+-+ALFAMART+CINUNGKU/@-6.8531084,107.9517688,17z/data=!3m1!4b1!4m5!3m4!1s0x2e68d34e35929401:0xdd83b086fd8e066b!8m2!3d-6.8530673!4d107.9539637?hl=en",
  "searchPageUrl": "https://www.google.com/maps/search/ATM+Sumedang/@-6.8467527,107.9000006,13z/data=!4m2!2m1!6e2?hl=en",
  "searchString": "ATM Sumedang",
  "scrapedAt": "2022-04-19T05:17:59.616Z",
  "reviewsCount": 0,
  "reviewsDistribution": {
    "oneStar": 0,
    "twoStar": 0,
    "threeStar": 0,
    "fourStar": 0,
    "fiveStar": 0
  },
  "reviews": [],
  "orderBy": []
},
{
  "title": "ATM Bank BRI",
  "subTitle": null,
  "price": null,
  "menu": null,
  "categoryName": "Bank",
  "address": "Bank Rakyat Indonesia, Jl. Tampomas No.90, Kotakaler, Kec. Sumedang Utara, Kabupaten Sumedang, Jawa Barat 45621, Indonesia",
  "locatedIn": null,
  "neighborhood": "Bank Rakyat Indonesia, Jl. Tampomas No.90",
  "street": "Bank Rakyat Indonesia, Jl. Tampomas No.90",
  "city": "Sumedang Regency",
  "postalCode": "45621",
  "state": "West Java",
  "countryCode": "ID",
  "plusCode": "5W5G+6G Kotakaler, Sumedang Regency, West Java, Indonesia",
  "website": "http://ir-bri.com/",
  "phone": null,
  "temporarilyClosed": false,
  "location": {
    "lat": -6.8419829,
    "lng": 107.9263368
  },
  "permanentlyClosed": false,
  "totalScore": 4.5,
  "isAdvertisement": false,
  "rank": 52,
  "placeId": "ChIJC_7xADfRaC4RRHV_78tvD7M",
  "categories": [
    "ATM",
    "Bank"
  ],
  "cid": "12902654379126912324",
  "url": "https://www.google.com/maps/place/ATM+Bank+BRI/@-6.8419829,107.9241481,17z/data=!3m1!4b1!4m5!3m4!1s0x2e68d13700f1fe0b:0xb30f6fcbef7f7544!8m2!3d-6.8419812!4d107.9263323?hl=en",
  "searchPageUrl": "https://www.google.com/maps/search/ATM+Sumedang/@-6.8467527,107.9000006,13z/data=!4m2!2m1!6e2?hl=en",
  "searchString": "ATM Sumedang",
  "scrapedAt": "2022-04-19T05:18:07.192Z",
  "reviewsCount": 2,
  "reviewsDistribution": {
    "oneStar": 0,
    "twoStar": 0,
    "threeStar": 0,
    "fourStar": 1,
    "fiveStar": 1
  },
  "reviews": [],
  "orderBy": []
},
{
  "title": "Bank BRI Unit Regol",
  "subTitle": null,
  "price": null,
  "menu": null,
  "categoryName": "ATM",
  "address": "Jl. Prabu Geusan Ulun No.141, Kotakulon, Kec. Sumedang Sel., Kabupaten Sumedang, Jawa Barat 45311, Indonesia",
  "locatedIn": null,
  "neighborhood": "Jl. Prabu Geusan Ulun No.141",
  "street": "Jl. Prabu Geusan Ulun No.141",
  "city": "Sumedang Regency",
  "postalCode": "45311",
  "state": "West Java",
  "countryCode": "ID",
  "plusCode": "4WXF+P4 Kotakulon, Sumedang Regency, West Java, Indonesia",
  "website": "http://ir-bri.com/",
  "phone": "+62 261 201611",
  "temporarilyClosed": false,
  "location": {
    "lat": -6.8507179,
    "lng": 107.9228154
  },
  "permanentlyClosed": false,
  "totalScore": 4.5,
  "isAdvertisement": false,
  "rank": 51,
  "placeId": "ChIJ1QbsFzzRaC4RBB6yn7GKQXI",
  "categories": [
    "ATM"
  ],
  "cid": "8233014089303072260",
  "url": "https://www.google.com/maps/place/Bank+BRI+Unit+Regol/@-6.8507179,107.9206267,17z/data=!3m1!4b1!4m5!3m4!1s0x2e68d13c17ec06d5:0x72418ab19fb21e04!8m2!3d-6.8507179!4d107.9228154?hl=en",
  "searchPageUrl": "https://www.google.com/maps/search/ATM+Sumedang/@-6.8467527,107.9000006,13z/data=!4m2!2m1!6e2?hl=en",
  "searchString": "ATM Sumedang",
  "scrapedAt": "2022-04-19T05:18:15.096Z",
  "reviewsCount": 13,
  "reviewsDistribution": {
    "oneStar": 0,
    "twoStar": 0,
    "threeStar": 0,
    "fourStar": 6,
    "fiveStar": 7
  },
  "reviews": [],
  "orderBy": []
},
{
  "title": "Bank BRI CRM - UNIT BRI KOTA KALER",
  "subTitle": null,
  "price": null,
  "menu": null,
  "categoryName": "ATM",
  "address": "Jl. Mayor Abdurahman No.82, Kotakaler, Kec. Sumedang Utara, Kabupaten Sumedang, Jawa Barat 45621, Indonesia",
  "locatedIn": null,
  "neighborhood": "Jl. Mayor Abdurahman No.82",
  "street": "Jl. Mayor Abdurahman No.82",
  "city": "Sumedang Regency",
  "postalCode": "45621",
  "state": "West Java",
  "countryCode": "ID",
  "plusCode": "5W4F+8W Kotakaler, Sumedang Regency, West Java, Indonesia",
  "website": "https://bri.co.id/",
  "phone": "+62 21 14017",
  "temporarilyClosed": false,
  "location": {
    "lat": -6.8441458,
    "lng": 107.9247563
  },
  "permanentlyClosed": false,
  "totalScore": null,
  "isAdvertisement": false,
  "rank": 50,
  "placeId": "ChIJ-5jHVz3RaC4RPa_3GE_Wgkc",
  "categories": [
    "ATM"
  ],
  "cid": "5152916558874914621",
  "url": "https://www.google.com/maps/place/Bank+BRI+CRM+-+UNIT+BRI+KOTA+KALER/@-6.8441458,107.9225676,17z/data=!3m1!4b1!4m5!3m4!1s0x2e68d13d57c798fb:0x4782d64f18f7af3d!8m2!3d-6.8441458!4d107.9247563?hl=en",
  "searchPageUrl": "https://www.google.com/maps/search/ATM+Sumedang/@-6.8467527,107.9000006,13z/data=!4m2!2m1!6e2?hl=en",
  "searchString": "ATM Sumedang",
  "scrapedAt": "2022-04-19T05:18:22.856Z",
  "reviewsCount": 0,
  "reviewsDistribution": {
    "oneStar": 0,
    "twoStar": 0,
    "threeStar": 0,
    "fourStar": 0,
    "fiveStar": 0
  },
  "reviews": [],
  "orderBy": []
},
{
  "title": "Bank BRI CRM - UNIT KOTAKALER SUMEDANG",
  "subTitle": null,
  "price": null,
  "menu": null,
  "categoryName": "ATM",
  "address": "Jl. Nasional 5 No.55, Kotakaler, Kec. Sumedang Utara, Kabupaten Sumedang, Jawa Barat 45621, Indonesia",
  "locatedIn": null,
  "neighborhood": "Jl. Nasional 5 No.55",
  "street": "Jl. Nasional 5 No.55",
  "city": "Sumedang Regency",
  "postalCode": "45621",
  "state": "West Java",
  "countryCode": "ID",
  "plusCode": "5W3F+PM Kotakaler, Sumedang Regency, West Java, Indonesia",
  "website": "https://bri.co.id/",
  "phone": "+62 21 14017",
  "temporarilyClosed": false,
  "location": {
    "lat": -6.84563,
    "lng": 107.92423
  },
  "permanentlyClosed": false,
  "totalScore": null,
  "isAdvertisement": false,
  "rank": 49,
  "placeId": "ChIJLVCmHzPRaC4R-XcrOeWaHr4",
  "categories": [
    "ATM"
  ],
  "cid": "13699557425804965881",
  "url": "https://www.google.com/maps/place/Bank+BRI+CRM+-+UNIT+KOTAKALER+SUMEDANG/@-6.84563,107.9220413,17z/data=!3m1!4b1!4m5!3m4!1s0x2e68d1331fa6502d:0xbe1e9ae5392b77f9!8m2!3d-6.84563!4d107.92423?hl=en",
  "searchPageUrl": "https://www.google.com/maps/search/ATM+Sumedang/@-6.8467527,107.9000006,13z/data=!4m2!2m1!6e2?hl=en",
  "searchString": "ATM Sumedang",
  "scrapedAt": "2022-04-19T05:18:30.703Z",
  "reviewsCount": 0,
  "reviewsDistribution": {
    "oneStar": 0,
    "twoStar": 0,
    "threeStar": 0,
    "fourStar": 0,
    "fiveStar": 0
  },
  "reviews": [],
  "orderBy": []
},
{
  "title": "Setor Tunai Mandiri",
  "subTitle": null,
  "price": null,
  "menu": null,
  "categoryName": "ATM",
  "address": "Ciger, Kotakulon, Kec. Sumedang Sel., Kabupaten Sumedang, Jawa Barat 45311, Indonesia",
  "locatedIn": null,
  "neighborhood": "Ciger",
  "street": "Ciger",
  "city": "Sumedang Regency",
  "postalCode": "45311",
  "state": "West Java",
  "countryCode": "ID",
  "plusCode": "4WXF+83 Kotakulon, Sumedang Regency, West Java, Indonesia",
  "website": null,
  "phone": null,
  "temporarilyClosed": false,
  "location": {
    "lat": -6.8516919,
    "lng": 107.922643
  },
  "permanentlyClosed": false,
  "totalScore": 5,
  "isAdvertisement": false,
  "rank": 48,
  "placeId": "ChIJi4w2qlHRaC4RgzfkS5CWqoI",
  "categories": [
    "ATM"
  ],
  "cid": "9415503517464147843",
  "url": "https://www.google.com/maps/place/Setor+Tunai+Mandiri/@-6.8516919,107.9204543,17z/data=!3m1!4b1!4m5!3m4!1s0x2e68d151aa368c8b:0x82aa96904be43783!8m2!3d-6.8516393!4d107.9226486?hl=en",
  "searchPageUrl": "https://www.google.com/maps/search/ATM+Sumedang/@-6.8467527,107.9000006,13z/data=!4m2!2m1!6e2?hl=en",
  "searchString": "ATM Sumedang",
  "scrapedAt": "2022-04-19T05:18:38.472Z",
  "reviewsCount": 1,
  "reviewsDistribution": {
    "oneStar": 0,
    "twoStar": 0,
    "threeStar": 0,
    "fourStar": 0,
    "fiveStar": 1
  },
  "reviews": [],
  "orderBy": []
},
{
  "title": "Bank BRI CRM - UNIT BRI REGOL",
  "subTitle": null,
  "price": null,
  "menu": null,
  "categoryName": "ATM",
  "address": "Jl. Pangeran Kornel No.215, Kotakulon, Kec. Sumedang Sel., Kabupaten Sumedang, Jawa Barat 45311, Indonesia",
  "locatedIn": null,
  "neighborhood": "Jl. Pangeran Kornel No.215",
  "street": "Jl. Pangeran Kornel No.215",
  "city": "Sumedang Regency",
  "postalCode": "45311",
  "state": "West Java",
  "countryCode": "ID",
  "plusCode": "4WV7+7C Kotakulon, Sumedang Regency, West Java, Indonesia",
  "website": "https://bri.co.id/",
  "phone": "+62 21 14017",
  "temporarilyClosed": false,
  "location": {
    "lat": -6.8568636,
    "lng": 107.9136096
  },
  "permanentlyClosed": false,
  "totalScore": null,
  "isAdvertisement": false,
  "rank": 47,
  "placeId": "ChIJmfKshwXRaC4RdXHZ44zbb2M",
  "categories": [
    "ATM"
  ],
  "cid": "7165186930334331253",
  "url": "https://www.google.com/maps/place/Bank+BRI+CRM+-+UNIT+BRI+REGOL/@-6.8568636,107.9114209,17z/data=!3m1!4b1!4m5!3m4!1s0x2e68d10587acf299:0x636fdb8ce3d97175!8m2!3d-6.8568636!4d107.9136096?hl=en",
  "searchPageUrl": "https://www.google.com/maps/search/ATM+Sumedang/@-6.8467527,107.9000006,13z/data=!4m2!2m1!6e2?hl=en",
  "searchString": "ATM Sumedang",
  "scrapedAt": "2022-04-19T05:18:46.156Z",
  "reviewsCount": 0,
  "reviewsDistribution": {
    "oneStar": 0,
    "twoStar": 0,
    "threeStar": 0,
    "fourStar": 0,
    "fiveStar": 0
  },
  "reviews": [],
  "orderBy": []
},
{
  "title": "ATM BNI ATM KLINIK BUNDA MEDIKA",
  "subTitle": null,
  "price": null,
  "menu": null,
  "categoryName": "ATM",
  "address": "Kotakaler, Sumedang Utara, Sumedang Regency, West Java 45621, Indonesia             Kotakaler, Kec. Sumedang Utara, Kabupaten Sumedang, Jawa Barat 45621",
  "locatedIn": null,
  "neighborhood": null,
  "street": null,
  "city": "Sumedang Regency",
  "postalCode": "45621",
  "state": "West Java",
  "countryCode": "ID",
  "plusCode": "5W7J+CH Kotakaler, Sumedang Regency, West Java, Indonesia",
  "website": "http://www.bni.co.id/",
  "phone": "+62 21 57899999",
  "temporarilyClosed": false,
  "location": {
    "lat": -6.8364576,
    "lng": 107.9314181
  },
  "permanentlyClosed": false,
  "totalScore": 4.5,
  "isAdvertisement": false,
  "rank": 46,
  "placeId": "ChIJR90Z8zbRaC4RkdDSWeGMjEA",
  "categories": [
    "ATM"
  ],
  "cid": "4651247414669398161",
  "url": "https://www.google.com/maps/place/ATM+BNI+ATM+KLINIK+BUNDA+MEDIKA/@-6.8364576,107.9292294,17z/data=!3m1!4b1!4m5!3m4!1s0x2e68d136f319dd47:0x408c8ce159d2d091!8m2!3d-6.8364592!4d107.9314178?hl=en",
  "searchPageUrl": "https://www.google.com/maps/search/ATM+Sumedang/@-6.8467527,107.9000006,13z/data=!4m2!2m1!6e2?hl=en",
  "searchString": "ATM Sumedang",
  "scrapedAt": "2022-04-19T05:18:53.978Z",
  "reviewsCount": 2,
  "reviewsDistribution": {
    "oneStar": 0,
    "twoStar": 0,
    "threeStar": 0,
    "fourStar": 1,
    "fiveStar": 1
  },
  "reviews": [],
  "orderBy": []
},
{
  "title": "Bank BRI CRM - UNIT SITU SUMEDANG",
  "subTitle": null,
  "price": null,
  "menu": null,
  "categoryName": "ATM",
  "address": "Alun-Alun No.305, Situ, Kec. Sumedang Utara, Kabupaten Sumedang, Jawa Barat 45621, Indonesia",
  "locatedIn": null,
  "neighborhood": "Alun-Alun No.305",
  "street": "Alun-Alun No.305",
  "city": "Sumedang Regency",
  "postalCode": "45621",
  "state": "West Java",
  "countryCode": "ID",
  "plusCode": "5WC9+3H Situ, Sumedang Regency, West Java, Indonesia",
  "website": "https://bri.co.id/",
  "phone": "+62 21 14017",
  "temporarilyClosed": false,
  "location": {
    "lat": -6.8297944,
    "lng": 107.9189736
  },
  "permanentlyClosed": false,
  "totalScore": null,
  "isAdvertisement": false,
  "rank": 45,
  "placeId": "ChIJiym_HHjXaC4RU4lyXeqw8Fs",
  "categories": [
    "ATM"
  ],
  "cid": "6624989572498622803",
  "url": "https://www.google.com/maps/place/Bank+BRI+CRM+-+UNIT+SITU+SUMEDANG/@-6.8297944,107.9167849,17z/data=!3m1!4b1!4m5!3m4!1s0x2e68d7781cbf298b:0x5bf0b0ea5d728953!8m2!3d-6.8297785!4d107.9187699?hl=en",
  "searchPageUrl": "https://www.google.com/maps/search/ATM+Sumedang/@-6.8467527,107.9000006,13z/data=!4m2!2m1!6e2?hl=en",
  "searchString": "ATM Sumedang",
  "scrapedAt": "2022-04-19T05:19:01.889Z",
  "reviewsCount": 0,
  "reviewsDistribution": {
    "oneStar": 0,
    "twoStar": 0,
    "threeStar": 0,
    "fourStar": 0,
    "fiveStar": 0
  },
  "reviews": [],
  "orderBy": []
},
{
  "title": "Bank BRI CRM - UNIT Ciuyah",
  "subTitle": null,
  "price": null,
  "menu": null,
  "categoryName": "ATM",
  "address": "Jl. Adimanggala No.65, RT.4/RW.4, Kotakaler, Sumedang Utara, Sumedang Regency, West Java 40618, Indonesia             Jl. Adimanggala No.65, RT.4/RW.4, Kotakaler, Kec. Sumedang Utara, Kabupaten Sumedang, Jawa Barat 40618",
  "locatedIn": null,
  "neighborhood": "Jl. Adimanggala No.65, RT.4/RW.4",
  "street": "Jl. Adimanggala No.65, RT.4/RW.4",
  "city": "Sumedang Regency",
  "postalCode": "40618",
  "state": "West Java",
  "countryCode": "ID",
  "plusCode": "5W8J+4G Kotakaler, Sumedang Regency, West Java, Indonesia",
  "website": "https://bri.co.id/",
  "phone": "+62 21 14017",
  "temporarilyClosed": false,
  "location": {
    "lat": -6.834664,
    "lng": 107.931281
  },
  "permanentlyClosed": false,
  "totalScore": null,
  "isAdvertisement": false,
  "rank": 44,
  "placeId": "ChIJe3IzJjvRaC4RvLYNI3XzQM4",
  "categories": [
    "ATM"
  ],
  "cid": "14862146454747461308",
  "url": "https://www.google.com/maps/place/Bank+BRI+CRM+-+UNIT+Ciuyah/@-6.834664,107.9290923,17z/data=!3m1!4b1!4m5!3m4!1s0x2e68d13b2633727b:0xce40f375230db6bc!8m2!3d-6.8346609!4d107.9312799?hl=en",
  "searchPageUrl": "https://www.google.com/maps/search/ATM+Sumedang/@-6.8467527,107.9000006,13z/data=!4m2!2m1!6e2?hl=en",
  "searchString": "ATM Sumedang",
  "scrapedAt": "2022-04-19T05:19:09.556Z",
  "reviewsCount": 0,
  "reviewsDistribution": {
    "oneStar": 0,
    "twoStar": 0,
    "threeStar": 0,
    "fourStar": 0,
    "fiveStar": 0
  },
  "reviews": [],
  "orderBy": []
},
{
  "title": "ATM Bank Wori Saudara",
  "subTitle": null,
  "price": null,
  "menu": null,
  "categoryName": "ATM",
  "address": "Jl. Raya Cirebon - Bandung No.78, Regol Wetan, Kec. Sumedang Sel., Kabupaten Sumedang, Jawa Barat 45311, Indonesia",
  "locatedIn": null,
  "neighborhood": "Jl. Raya Cirebon - Bandung No.78",
  "street": "Jl. Raya Cirebon - Bandung No.78",
  "city": "Sumedang Regency",
  "postalCode": "45311",
  "state": "West Java",
  "countryCode": "ID",
  "plusCode": "4WVC+CQ Regol Wetan, Sumedang Regency, West Java, Indonesia",
  "website": null,
  "phone": null,
  "temporarilyClosed": true,
  "location": {
    "lat": -6.8564714,
    "lng": 107.9219364
  },
  "permanentlyClosed": false,
  "totalScore": null,
  "isAdvertisement": false,
  "rank": 43,
  "placeId": "ChIJabPhgrzRaC4RwV0m6MExAZQ",
  "categories": [
    "ATM"
  ],
  "cid": "10664860101483322817",
  "url": "https://www.google.com/maps/place/ATM+Bank+Wori+Saudara/@-6.8564714,107.9197477,17z/data=!3m1!4b1!4m5!3m4!1s0x2e68d1bc82e1b369:0x940131c1e8265dc1!8m2!3d-6.8564714!4d107.9219364?hl=en",
  "searchPageUrl": "https://www.google.com/maps/search/ATM+Sumedang/@-6.8467527,107.9000006,13z/data=!4m2!2m1!6e2?hl=en",
  "searchString": "ATM Sumedang",
  "scrapedAt": "2022-04-19T05:19:16.831Z",
  "reviewsCount": 0,
  "reviewsDistribution": {
    "oneStar": 0,
    "twoStar": 0,
    "threeStar": 0,
    "fourStar": 0,
    "fiveStar": 0
  },
  "reviews": [],
  "orderBy": []
},
{
  "title": "ATM CIMB NIAGA (SPBU Prabu Gajah Agung Sumedang)",
  "subTitle": null,
  "price": null,
  "menu": null,
  "categoryName": "ATM",
  "address": "Jl. Prabu Gajah Agung, Spbu 34-45309, Situ, Sumedang Utara, Sumedang Regency, Indonesia 45352, Indonesia",
  "locatedIn": null,
  "neighborhood": "Jl. Prabu Gajah Agung, Spbu 34-45309",
  "street": "Jl. Prabu Gajah Agung, Spbu 34-45309",
  "city": "Sumedang Regency",
  "postalCode": "45352",
  "state": "Indonesia",
  "countryCode": "ID",
  "plusCode": "5W58+PQ Situ, Sumedang Regency, West Java, Indonesia",
  "website": null,
  "phone": "+62 261 14041",
  "temporarilyClosed": true,
  "location": {
    "lat": -6.8406286,
    "lng": 107.9169417
  },
  "permanentlyClosed": false,
  "totalScore": null,
  "isAdvertisement": false,
  "rank": 42,
  "placeId": "ChIJjeToFy7RaC4RjYhj-GK4ZwU",
  "categories": [
    "ATM"
  ],
  "cid": "389482628004415629",
  "url": "https://www.google.com/maps/place/ATM+CIMB+NIAGA+(SPBU+Prabu+Gajah+Agung+Sumedang)/@-6.8406286,107.914753,17z/data=!3m1!4b1!4m5!3m4!1s0x2e68d12e17e8e48d:0x567b862f863888d!8m2!3d-6.8406286!4d107.9169417?hl=en",
  "searchPageUrl": "https://www.google.com/maps/search/ATM+Sumedang/@-6.8467527,107.9000006,13z/data=!4m2!2m1!6e2?hl=en",
  "searchString": "ATM Sumedang",
  "scrapedAt": "2022-04-19T05:19:24.067Z",
  "reviewsCount": 0,
  "reviewsDistribution": {
    "oneStar": 0,
    "twoStar": 0,
    "threeStar": 0,
    "fourStar": 0,
    "fiveStar": 0
  },
  "reviews": [],
  "orderBy": []
},
{
  "title": "ATM BCA",
  "subTitle": null,
  "price": null,
  "menu": null,
  "categoryName": "ATM",
  "address": "Jl. Raya Cirebon - Bandung No.185, Kotakaler, Kec. Sumedang Utara, Kabupaten Sumedang, Jawa Barat 45621, Indonesia",
  "locatedIn": null,
  "neighborhood": "Jl. Raya Cirebon - Bandung No.185",
  "street": "Jl. Raya Cirebon - Bandung No.185",
  "city": "Sumedang Regency",
  "postalCode": "45621",
  "state": "West Java",
  "countryCode": "ID",
  "plusCode": "5W6G+8H Kotakaler, Sumedang Regency, West Java, Indonesia",
  "website": null,
  "phone": null,
  "temporarilyClosed": false,
  "location": {
    "lat": -6.8392243,
    "lng": 107.9263779
  },
  "permanentlyClosed": false,
  "totalScore": 5,
  "isAdvertisement": false,
  "rank": 41,
  "placeId": "ChIJuyaVeTbRaC4RzkRK-O0dt2A",
  "categories": [
    "ATM"
  ],
  "cid": "6969071856289203406",
  "url": "https://www.google.com/maps/place/ATM+BCA/@-6.8392243,107.9241892,17z/data=!3m1!4b1!4m5!3m4!1s0x2e68d136799526bb:0x60b71dedf84a44ce!8m2!3d-6.8392383!4d107.9264004?hl=en",
  "searchPageUrl": "https://www.google.com/maps/search/ATM+Sumedang/@-6.8467527,107.9000006,13z/data=!4m2!2m1!6e2?hl=en",
  "searchString": "ATM Sumedang",
  "scrapedAt": "2022-04-19T05:19:31.354Z",
  "reviewsCount": 2,
  "reviewsDistribution": {
    "oneStar": 0,
    "twoStar": 0,
    "threeStar": 0,
    "fourStar": 0,
    "fiveStar": 2
  },
  "reviews": [],
  "orderBy": []
},
{
  "title": "Bank BRI CRM - KC SUMEDANG",
  "subTitle": null,
  "price": null,
  "menu": null,
  "categoryName": "ATM",
  "address": "Jl. Raya Cirebon - Bandung No.227, Kotakulon, Kec. Sumedang Sel., Kabupaten Sumedang, Jawa Barat 45311, Indonesia",
  "locatedIn": null,
  "neighborhood": "Jl. Raya Cirebon - Bandung No.227",
  "street": "Jl. Raya Cirebon - Bandung No.227",
  "city": "Sumedang Regency",
  "postalCode": "45311",
  "state": "West Java",
  "countryCode": "ID",
  "plusCode": "4WQ7+J9 Kotakulon, Sumedang Regency, West Java, Indonesia",
  "website": "https://bri.co.id/",
  "phone": "+62 21 14017",
  "temporarilyClosed": false,
  "location": {
    "lat": -6.8608787,
    "lng": 107.9134298
  },
  "permanentlyClosed": false,
  "totalScore": null,
  "isAdvertisement": false,
  "rank": 40,
  "placeId": "ChIJ52R1cUDRaC4RZwausoKwBoQ",
  "categories": [
    "ATM"
  ],
  "cid": "9513485338256737895",
  "url": "https://www.google.com/maps/place/Bank+BRI+CRM+-+KC+SUMEDANG/@-6.8608787,107.9112411,17z/data=!3m1!4b1!4m5!3m4!1s0x2e68d140717564e7:0x8406b082b2ae0667!8m2!3d-6.8608998!4d107.9134354?hl=en",
  "searchPageUrl": "https://www.google.com/maps/search/ATM+Sumedang/@-6.8467527,107.9000006,13z/data=!4m2!2m1!6e2?hl=en",
  "searchString": "ATM Sumedang",
  "scrapedAt": "2022-04-19T05:19:38.933Z",
  "reviewsCount": 0,
  "reviewsDistribution": {
    "oneStar": 0,
    "twoStar": 0,
    "threeStar": 0,
    "fourStar": 0,
    "fiveStar": 0
  },
  "reviews": [],
  "orderBy": []
},
{
  "title": "ATM BNI SPBU Prabu Gajah Agung",
  "subTitle": null,
  "price": null,
  "menu": null,
  "categoryName": "ATM",
  "address": "Jl. Prabu Gajah Agung, Situ, Kec. Sumedang Utara, Kabupaten Sumedang, Jawa Barat 45621, Indonesia",
  "locatedIn": null,
  "neighborhood": "Jl. Prabu Gajah Agung",
  "street": "Jl. Prabu Gajah Agung",
  "city": "Sumedang Regency",
  "postalCode": "45621",
  "state": "West Java",
  "countryCode": "ID",
  "plusCode": "5W88+2V Situ, Sumedang Regency, West Java, Indonesia",
  "website": null,
  "phone": null,
  "temporarilyClosed": false,
  "location": {
    "lat": -6.8349734,
    "lng": 107.9172152
  },
  "permanentlyClosed": false,
  "totalScore": null,
  "isAdvertisement": false,
  "rank": 39,
  "placeId": "ChIJPeqOWS3RaC4R-heJVmh11_Q",
  "categories": [
    "ATM"
  ],
  "cid": "17642699156236081146",
  "url": "https://www.google.com/maps/place/ATM+BNI+SPBU+Prabu+Gajah+Agung/@-6.8349734,107.9150265,17z/data=!3m1!4b1!4m5!3m4!1s0x2e68d12d598eea3d:0xf4d77568568917fa!8m2!3d-6.8349684!4d107.9171371?hl=en",
  "searchPageUrl": "https://www.google.com/maps/search/ATM+Sumedang/@-6.8467527,107.9000006,13z/data=!4m2!2m1!6e2?hl=en",
  "searchString": "ATM Sumedang",
  "scrapedAt": "2022-04-19T05:19:46.483Z",
  "reviewsCount": 0,
  "reviewsDistribution": {
    "oneStar": 0,
    "twoStar": 0,
    "threeStar": 0,
    "fourStar": 0,
    "fiveStar": 0
  },
  "reviews": [],
  "orderBy": []
},
{
  "title": "Bank BRI CRM - KANCA SUMEDANG",
  "subTitle": null,
  "price": null,
  "menu": null,
  "categoryName": "ATM",
  "address": "Jl. Prabu Geusan Ulun No.10, RT.03, Regol Wetan, Kec. Sumedang Sel., Kabupaten Sumedang, Jawa Barat 45311, Indonesia",
  "locatedIn": null,
  "neighborhood": "Jl. Prabu Geusan Ulun No.10, RT.03",
  "street": "Jl. Prabu Geusan Ulun No.10, RT.03",
  "city": "Sumedang Regency",
  "postalCode": "45311",
  "state": "West Java",
  "countryCode": "ID",
  "plusCode": "4WQ9+P4 Regol Wetan, Sumedang Regency, West Java, Indonesia",
  "website": "https://bri.co.id/",
  "phone": "+62 21 14017",
  "temporarilyClosed": false,
  "location": {
    "lat": -6.8606477,
    "lng": 107.9178383
  },
  "permanentlyClosed": false,
  "totalScore": null,
  "isAdvertisement": false,
  "rank": 38,
  "placeId": "ChIJvdlEv4jRaC4R53CGwHQxLGI",
  "categories": [
    "ATM"
  ],
  "cid": "7074083492208210151",
  "url": "https://www.google.com/maps/place/Bank+BRI+CRM+-+KANCA+SUMEDANG/@-6.8606477,107.9156496,17z/data=!3m1!4b1!4m5!3m4!1s0x2e68d188bf44d9bd:0x622c3174c08670e7!8m2!3d-6.8606477!4d107.9178431?hl=en",
  "searchPageUrl": "https://www.google.com/maps/search/ATM+Sumedang/@-6.8467527,107.9000006,13z/data=!4m2!2m1!6e2?hl=en",
  "searchString": "ATM Sumedang",
  "scrapedAt": "2022-04-19T05:19:55.225Z",
  "reviewsCount": 0,
  "reviewsDistribution": {
    "oneStar": 0,
    "twoStar": 0,
    "threeStar": 0,
    "fourStar": 0,
    "fiveStar": 0
  },
  "reviews": [],
  "orderBy": []
},
{
  "title": "ATM Mandiri",
  "subTitle": null,
  "price": null,
  "menu": null,
  "categoryName": "ATM",
  "address": "4WXF+J34, Kotakulon, Sumedang Selatan, Sumedang Regency, West Java 45311, Indonesia             4WXF+J34, Kotakulon, Kec. Sumedang Sel., Kabupaten Sumedang, Jawa Barat 45311",
  "locatedIn": null,
  "neighborhood": "4WXF+J34",
  "street": "4WXF+J34",
  "city": "Sumedang Regency",
  "postalCode": "45311",
  "state": "West Java",
  "countryCode": "ID",
  "plusCode": null,
  "website": "https://www.bankmandiri.co.id/",
  "phone": null,
  "temporarilyClosed": false,
  "location": {
    "lat": -6.8509754,
    "lng": 107.9227094
  },
  "permanentlyClosed": false,
  "totalScore": 4.3,
  "isAdvertisement": false,
  "rank": 37,
  "placeId": "ChIJgY6WPDzRaC4Rp2ayGJb6S0k",
  "categories": [
    "ATM"
  ],
  "cid": "5281590510588421799",
  "url": "https://www.google.com/maps/place/ATM+Mandiri/@-6.8509754,107.9205207,17z/data=!3m1!4b1!4m5!3m4!1s0x2e68d13c3c968e81:0x494bfa9618b266a7!8m2!3d-6.8509969!4d107.922704?hl=en",
  "searchPageUrl": "https://www.google.com/maps/search/ATM+Sumedang/@-6.8467527,107.9000006,13z/data=!4m2!2m1!6e2?hl=en",
  "searchString": "ATM Sumedang",
  "scrapedAt": "2022-04-19T05:20:02.601Z",
  "reviewsCount": 3,
  "reviewsDistribution": {
    "oneStar": 0,
    "twoStar": 0,
    "threeStar": 0,
    "fourStar": 2,
    "fiveStar": 1
  },
  "reviews": [],
  "orderBy": []
},
{
  "title": "SIM",
  "subTitle": null,
  "price": null,
  "menu": null,
  "categoryName": "ATM",
  "address": "5W79+355, Situ, Sumedang Utara, Sumedang Regency, West Java 45621, Indonesia             5W79+355, Situ, Kec. Sumedang Utara, Kabupaten Sumedang, Jawa Barat 45621",
  "locatedIn": null,
  "neighborhood": "5W79+355",
  "street": "5W79+355",
  "city": "Sumedang Regency",
  "postalCode": "45621",
  "state": "West Java",
  "countryCode": "ID",
  "plusCode": null,
  "website": null,
  "phone": null,
  "temporarilyClosed": false,
  "location": {
    "lat": -6.8373634,
    "lng": 107.9179709
  },
  "permanentlyClosed": false,
  "totalScore": null,
  "isAdvertisement": false,
  "rank": 36,
  "placeId": "ChIJU-2GcLvRaC4R94His1Kzmn0",
  "categories": [
    "ATM"
  ],
  "cid": "9050743568941089271",
  "url": "https://www.google.com/maps/place/SIM/@-6.8373634,107.9179709,17z/data=!3m1!4b1!4m5!3m4!1s0x2e68d1bb7086ed53:0x7d9ab352b3e281f7!8m2!3d-6.8373625!4d107.9179436?hl=en",
  "searchPageUrl": "https://www.google.com/maps/search/ATM+Sumedang/@-6.8467527,107.9000006,13z/data=!4m2!2m1!6e2?hl=en",
  "searchString": "ATM Sumedang",
  "scrapedAt": "2022-04-19T05:20:11.101Z",
  "reviewsCount": 0,
  "reviewsDistribution": {
    "oneStar": 0,
    "twoStar": 0,
    "threeStar": 0,
    "fourStar": 0,
    "fiveStar": 0
  },
  "reviews": [],
  "orderBy": []
},
{
  "title": "ATM BNI UPI Sumedang",
  "subTitle": null,
  "price": null,
  "menu": null,
  "categoryName": "Bank",
  "address": "5W6H+X47, Kotakaler, Sumedang Utara, Sumedang Regency, West Java 45621, Indonesia             5W6H+X47, Kotakaler, Kec. Sumedang Utara, Kabupaten Sumedang, Jawa Barat 45621",
  "locatedIn": null,
  "neighborhood": "5W6H+X47",
  "street": "5W6H+X47",
  "city": "Sumedang Regency",
  "postalCode": "45621",
  "state": "West Java",
  "countryCode": "ID",
  "plusCode": null,
  "website": null,
  "phone": null,
  "temporarilyClosed": false,
  "location": {
    "lat": -6.8375913,
    "lng": 107.9277856
  },
  "permanentlyClosed": false,
  "totalScore": 5,
  "isAdvertisement": false,
  "rank": 35,
  "placeId": "ChIJ-fKmvzXRaC4Rxsfrcx0JWjc",
  "categories": [
    "ATM",
    "Bank"
  ],
  "cid": "3988510442093529030",
  "url": "https://www.google.com/maps/place/ATM+BNI+UPI+Sumedang/@-6.8375913,107.9277856,17z/data=!3m1!4b1!4m5!3m4!1s0x2e68d135bfa6f2f9:0x375a091d73ebc7c6!8m2!3d-6.8376145!4d107.9277635?hl=en",
  "searchPageUrl": "https://www.google.com/maps/search/ATM+Sumedang/@-6.8467527,107.9000006,13z/data=!4m2!2m1!6e2?hl=en",
  "searchString": "ATM Sumedang",
  "scrapedAt": "2022-04-19T05:20:20.107Z",
  "reviewsCount": 3,
  "reviewsDistribution": {
    "oneStar": 0,
    "twoStar": 0,
    "threeStar": 0,
    "fourStar": 0,
    "fiveStar": 3
  },
  "reviews": [],
  "orderBy": []
},
{
  "title": "ATM Bank BRI",
  "subTitle": null,
  "price": null,
  "menu": null,
  "categoryName": "ATM",
  "address": "Bank Rakyat Indonesia,, Jl. Nasional 5 No.70, Kotakaler, Kec. Sumedang Utara, Kabupaten Sumedang, Jawa Barat 45621, Indonesia",
  "locatedIn": null,
  "neighborhood": "Bank Rakyat Indonesia,, Jl. Nasional 5 No.70",
  "street": "Bank Rakyat Indonesia,, Jl. Nasional 5 No.70",
  "city": "Sumedang Regency",
  "postalCode": "45621",
  "state": "West Java",
  "countryCode": "ID",
  "plusCode": "5W4F+9V Kotakaler, Sumedang Regency, West Java, Indonesia",
  "website": null,
  "phone": null,
  "temporarilyClosed": false,
  "location": {
    "lat": -6.8440999,
    "lng": 107.9247234
  },
  "permanentlyClosed": false,
  "totalScore": 3,
  "isAdvertisement": false,
  "rank": 34,
  "placeId": "ChIJjc_A5znRaC4RBiV-LzvtV7g",
  "categories": [
    "ATM"
  ],
  "cid": "13283346464408216838",
  "url": "https://www.google.com/maps/place/ATM+Bank+BRI/@-6.8440999,107.9247234,17z/data=!3m1!4b1!4m5!3m4!1s0x2e68d139e7c0cf8d:0xb857ed3b2f7e2506!8m2!3d-6.8440999!4d107.9247234?hl=en",
  "searchPageUrl": "https://www.google.com/maps/search/ATM+Sumedang/@-6.8467527,107.9000006,13z/data=!4m2!2m1!6e2?hl=en",
  "searchString": "ATM Sumedang",
  "scrapedAt": "2022-04-19T05:20:28.068Z",
  "reviewsCount": 2,
  "reviewsDistribution": {
    "oneStar": 1,
    "twoStar": 0,
    "threeStar": 0,
    "fourStar": 0,
    "fiveStar": 1
  },
  "reviews": [],
  "orderBy": []
},
{
  "title": "ATM Bank Central Asia (BCA)",
  "subTitle": null,
  "price": null,
  "menu": null,
  "categoryName": "ATM",
  "address": "Jl. Mayor Abdurahman No.153, Kotakaler, Kec. Sumedang Utara, Kabupaten Sumedang, Jawa Barat 45621, Indonesia",
  "locatedIn": "BCA KCP Sumedang",
  "neighborhood": "Jl. Mayor Abdurahman No.153",
  "street": "Jl. Mayor Abdurahman No.153",
  "city": "Sumedang Regency",
  "postalCode": "45621",
  "state": "West Java",
  "countryCode": "ID",
  "plusCode": "5W6G+7H Kotakaler, Sumedang Regency, West Java, Indonesia",
  "website": null,
  "phone": "+62 261 500888",
  "temporarilyClosed": false,
  "location": {
    "lat": -6.8393181,
    "lng": 107.9264538
  },
  "permanentlyClosed": false,
  "totalScore": 4,
  "isAdvertisement": false,
  "rank": 33,
  "placeId": "ChIJf3gojTbRaC4Ru3tWqrEwJ9c",
  "categories": [
    "ATM"
  ],
  "cid": "15503413781871360955",
  "url": "https://www.google.com/maps/place/ATM+Bank+Central+Asia+(BCA)/@-6.8393181,107.9264538,17z/data=!3m1!4b1!4m5!3m4!1s0x2e68d1368d28787f:0xd72730b1aa567bbb!8m2!3d-6.8393181!4d107.9264538?hl=en",
  "searchPageUrl": "https://www.google.com/maps/search/ATM+Sumedang/@-6.8467527,107.9000006,13z/data=!4m2!2m1!6e2?hl=en",
  "searchString": "ATM Sumedang",
  "scrapedAt": "2022-04-19T05:20:36.787Z",
  "reviewsCount": 1,
  "reviewsDistribution": {
    "oneStar": 0,
    "twoStar": 0,
    "threeStar": 0,
    "fourStar": 1,
    "fiveStar": 0
  },
  "reviews": [],
  "orderBy": []
},
{
  "title": "ATM Bank Syariah Indonesia",
  "subTitle": null,
  "price": null,
  "menu": null,
  "categoryName": "ATM",
  "address": "Jl. Prabu Geusan Ulun, Regol Wetan, Kec. Sumedang Sel., Kabupaten Sumedang, Jawa Barat 45311, Indonesia",
  "locatedIn": null,
  "neighborhood": "Jl. Prabu Geusan Ulun",
  "street": "Jl. Prabu Geusan Ulun",
  "city": "Sumedang Regency",
  "postalCode": "45311",
  "state": "West Java",
  "countryCode": "ID",
  "plusCode": "4WXC+3X Regol Wetan, Sumedang Regency, West Java, Indonesia",
  "website": null,
  "phone": null,
  "temporarilyClosed": false,
  "location": {
    "lat": -6.8522981,
    "lng": 107.9224832
  },
  "permanentlyClosed": false,
  "totalScore": 5,
  "isAdvertisement": false,
  "rank": 32,
  "placeId": "ChIJwfMORNfRaC4RhIYHfEVtyBA",
  "categories": [
    "ATM"
  ],
  "cid": "1209336645150017156",
  "url": "https://www.google.com/maps/place/ATM+Bank+Syariah+Indonesia/@-6.8522981,107.9224832,17z/data=!3m1!4b1!4m5!3m4!1s0x2e68d1d7440ef3c1:0x10c86d457c078684!8m2!3d-6.8523055!4d107.922521?hl=en",
  "searchPageUrl": "https://www.google.com/maps/search/ATM+Sumedang/@-6.8467527,107.9000006,13z/data=!4m2!2m1!6e2?hl=en",
  "searchString": "ATM Sumedang",
  "scrapedAt": "2022-04-19T05:20:44.494Z",
  "reviewsCount": 2,
  "reviewsDistribution": {
    "oneStar": 0,
    "twoStar": 0,
    "threeStar": 0,
    "fourStar": 0,
    "fiveStar": 2
  },
  "reviews": [],
  "orderBy": []
},
{
  "title": "ATM Bank Mega",
  "subTitle": null,
  "price": null,
  "menu": null,
  "categoryName": "ATM",
  "address": "Kantor Cabang Pembantu, Jl. Prabu Geusan Ulun No.53, Kotakulon, Kec. Sumedang Sel., Kabupaten Sumedang, Jawa Barat 45312, Indonesia",
  "locatedIn": "Bank Mega",
  "neighborhood": "Kantor Cabang Pembantu, Jl. Prabu Geusan Ulun No.53",
  "street": "Kantor Cabang Pembantu, Jl. Prabu Geusan Ulun No.53",
  "city": "Sumedang Regency",
  "postalCode": "45312",
  "state": "West Java",
  "countryCode": "ID",
  "plusCode": "4WVC+FH Kotakulon, Sumedang Regency, West Java, Indonesia",
  "website": "https://www.bankmega.com/",
  "phone": null,
  "temporarilyClosed": false,
  "location": {
    "lat": -6.8562595,
    "lng": 107.9214775
  },
  "permanentlyClosed": false,
  "totalScore": 4,
  "isAdvertisement": false,
  "rank": 31,
  "placeId": "ChIJaddiRhbRaC4R2nyZK0U4T1Y",
  "categories": [
    "ATM"
  ],
  "cid": "6219251480157322458",
  "url": "https://www.google.com/maps/place/ATM+Bank+Mega/@-6.8562595,107.9214775,17z/data=!3m1!4b1!4m5!3m4!1s0x2e68d1164662d769:0x564f38452b997cda!8m2!3d-6.8562551!4d107.9214519?hl=en",
  "searchPageUrl": "https://www.google.com/maps/search/ATM+Sumedang/@-6.8467527,107.9000006,13z/data=!4m2!2m1!6e2?hl=en",
  "searchString": "ATM Sumedang",
  "scrapedAt": "2022-04-19T05:20:51.911Z",
  "reviewsCount": 2,
  "reviewsDistribution": {
    "oneStar": 0,
    "twoStar": 0,
    "threeStar": 0,
    "fourStar": 2,
    "fiveStar": 0
  },
  "reviews": [],
  "orderBy": []
},
{
  "title": "ATM Bank Tabungan Pensiunan Nasional (BTPN)",
  "subTitle": null,
  "price": null,
  "menu": null,
  "categoryName": "ATM",
  "address": "Jl. Prabu Geusan Ulun No.83, Kotakulon, Kec. Sumedang Sel., Kabupaten Sumedang, Jawa Barat 45311, Indonesia",
  "locatedIn": null,
  "neighborhood": "Jl. Prabu Geusan Ulun No.83",
  "street": "Jl. Prabu Geusan Ulun No.83",
  "city": "Sumedang Regency",
  "postalCode": "45311",
  "state": "West Java",
  "countryCode": "ID",
  "plusCode": "4WWC+4Q Kotakulon, Sumedang Regency, West Java, Indonesia",
  "website": "http://www.btpn.com/",
  "phone": "+62 21 30026200",
  "temporarilyClosed": false,
  "location": {
    "lat": -6.8546346,
    "lng": 107.9219557
  },
  "permanentlyClosed": false,
  "totalScore": null,
  "isAdvertisement": false,
  "rank": 30,
  "placeId": "ChIJZwfKRBbRaC4RHypYLaFRgK4",
  "categories": [
    "ATM"
  ],
  "cid": "12574139912310762015",
  "url": "https://www.google.com/maps/place/ATM+Bank+Tabungan+Pensiunan+Nasional+(BTPN)/@-6.8546346,107.9219557,17z/data=!3m1!4b1!4m5!3m4!1s0x2e68d11644ca0767:0xae8051a12d582a1f!8m2!3d-6.8546548!4d107.9220608?hl=en",
  "searchPageUrl": "https://www.google.com/maps/search/ATM+Sumedang/@-6.8467527,107.9000006,13z/data=!4m2!2m1!6e2?hl=en",
  "searchString": "ATM Sumedang",
  "scrapedAt": "2022-04-19T05:20:59.304Z",
  "reviewsCount": 0,
  "reviewsDistribution": {
    "oneStar": 0,
    "twoStar": 0,
    "threeStar": 0,
    "fourStar": 0,
    "fiveStar": 0
  },
  "reviews": [],
  "orderBy": []
},
{
  "title": "ATM - GRIYA YOGYA",
  "subTitle": null,
  "price": null,
  "menu": null,
  "categoryName": "ATM",
  "address": "Jl. Mayor Abdurahman No.126a, Kotakaler, Kec. Sumedang Utara, Kabupaten Sumedang, Jawa Barat 45621, Indonesia",
  "locatedIn": null,
  "neighborhood": "Jl. Mayor Abdurahman No.126a",
  "street": "Jl. Mayor Abdurahman No.126a",
  "city": "Sumedang Regency",
  "postalCode": "45621",
  "state": "West Java",
  "countryCode": "ID",
  "plusCode": "5W5G+VC Kotakaler, Sumedang Regency, West Java, Indonesia",
  "website": "https://bri.co.id/",
  "phone": "+62 21 14017",
  "temporarilyClosed": false,
  "location": {
    "lat": -6.84027,
    "lng": 107.92601
  },
  "permanentlyClosed": false,
  "totalScore": null,
  "isAdvertisement": false,
  "rank": 29,
  "placeId": "ChIJl7zERKPRaC4RIwcIFbwyhrU",
  "categories": [
    "ATM"
  ],
  "cid": "13080197951132272419",
  "url": "https://www.google.com/maps/place/ATM+-+GRIYA+YOGYA/@-6.84027,107.92601,17z/data=!3m1!4b1!4m5!3m4!1s0x2e68d1a344c4bc97:0xb58632bc15080723!8m2!3d-6.84027!4d107.92601?hl=en",
  "searchPageUrl": "https://www.google.com/maps/search/ATM+Sumedang/@-6.8467527,107.9000006,13z/data=!4m2!2m1!6e2?hl=en",
  "searchString": "ATM Sumedang",
  "scrapedAt": "2022-04-19T05:21:06.977Z",
  "reviewsCount": 0,
  "reviewsDistribution": {
    "oneStar": 0,
    "twoStar": 0,
    "threeStar": 0,
    "fourStar": 0,
    "fiveStar": 0
  },
  "reviews": [],
  "orderBy": []
},
{
  "title": "Bank BRI ATM - UNIT BRI SITU SUMEDANG",
  "subTitle": null,
  "price": null,
  "menu": null,
  "categoryName": "ATM",
  "address": "Jl. Serma Muchtar No.34, Situ, Kec. Sumedang Utara, Kabupaten Sumedang, Jawa Barat 45621, Indonesia",
  "locatedIn": null,
  "neighborhood": "Jl. Serma Muchtar No.34",
  "street": "Jl. Serma Muchtar No.34",
  "city": "Sumedang Regency",
  "postalCode": "45621",
  "state": "West Java",
  "countryCode": "ID",
  "plusCode": "5W3C+RM Situ, Sumedang Regency, West Java, Indonesia",
  "website": "https://bri.co.id/",
  "phone": "+62 21 14017",
  "temporarilyClosed": false,
  "location": {
    "lat": -6.8454227,
    "lng": 107.9217326
  },
  "permanentlyClosed": false,
  "totalScore": null,
  "isAdvertisement": false,
  "rank": 28,
  "placeId": "ChIJ-UCOz8fRaC4R6cBT5k-IUOQ",
  "categories": [
    "ATM"
  ],
  "cid": "16451799315532464361",
  "url": "https://www.google.com/maps/place/Bank+BRI+ATM+-+UNIT+BRI+SITU+SUMEDANG/@-6.8454227,107.9217326,17z/data=!3m1!4b1!4m5!3m4!1s0x2e68d1c7cf8e40f9:0xe450884fe653c0e9!8m2!3d-6.8454037!4d107.9217387?hl=en",
  "searchPageUrl": "https://www.google.com/maps/search/ATM+Sumedang/@-6.8467527,107.9000006,13z/data=!4m2!2m1!6e2?hl=en",
  "searchString": "ATM Sumedang",
  "scrapedAt": "2022-04-19T05:21:15.568Z",
  "reviewsCount": 0,
  "reviewsDistribution": {
    "oneStar": 0,
    "twoStar": 0,
    "threeStar": 0,
    "fourStar": 0,
    "fiveStar": 0
  },
  "reviews": [],
  "orderBy": []
},
{
  "title": "ATM BRI KK RS. Pakuwon",
  "subTitle": null,
  "price": null,
  "menu": null,
  "categoryName": "ATM",
  "address": "Jl. Rd Dewi Sartika No.17, Regol Wetan, Kec. Sumedang Sel., Kabupaten Sumedang, Jawa Barat 45311, Indonesia",
  "locatedIn": "Pakuwon General Hospital",
  "neighborhood": "Jl. Rd Dewi Sartika No.17",
  "street": "Jl. Rd Dewi Sartika No.17",
  "city": "Sumedang Regency",
  "postalCode": "45311",
  "state": "West Java",
  "countryCode": "ID",
  "plusCode": "4WVF+3C Regol Wetan, Sumedang Regency, West Java, Indonesia",
  "website": null,
  "phone": null,
  "temporarilyClosed": false,
  "location": {
    "lat": -6.8572501,
    "lng": 107.9235464
  },
  "permanentlyClosed": false,
  "totalScore": 4,
  "isAdvertisement": false,
  "rank": 27,
  "placeId": "ChIJS4JW1RXRaC4R-lMJPlVrsQM",
  "categories": [
    "ATM"
  ],
  "cid": "266111866848760826",
  "url": "https://www.google.com/maps/place/ATM+BRI+KK+RS.+Pakuwon/@-6.8572501,107.9235464,17z/data=!3m1!4b1!4m5!3m4!1s0x2e68d115d556824b:0x3b16b553e0953fa!8m2!3d-6.8572398!4d107.9235489?hl=en",
  "searchPageUrl": "https://www.google.com/maps/search/ATM+Sumedang/@-6.8467527,107.9000006,13z/data=!4m2!2m1!6e2?hl=en",
  "searchString": "ATM Sumedang",
  "scrapedAt": "2022-04-19T05:21:24.889Z",
  "reviewsCount": 2,
  "reviewsDistribution": {
    "oneStar": 0,
    "twoStar": 0,
    "threeStar": 1,
    "fourStar": 0,
    "fiveStar": 1
  },
  "reviews": [],
  "orderBy": []
},
{
  "title": "ATM Bank BJB RIPP (Rencana Induk Pusat Pemerintahan)",
  "subTitle": null,
  "price": null,
  "menu": null,
  "categoryName": "ATM",
  "address": "Jl. Prabu Gajah Agung No.9, Situ, Kec. Situraja, Kabupaten Sumedang, Jawa Barat 45312, Indonesia",
  "locatedIn": null,
  "neighborhood": "Jl. Prabu Gajah Agung No.9",
  "street": "Jl. Prabu Gajah Agung No.9",
  "city": "Sumedang Regency",
  "postalCode": "45312",
  "state": "West Java",
  "countryCode": "ID",
  "plusCode": "5W69+CG Situ, Sumedang Regency, West Java, Indonesia",
  "website": "http://www.bankbjb.co.id/",
  "phone": "+62 22 4234868",
  "temporarilyClosed": false,
  "location": {
    "lat": -6.8389889,
    "lng": 107.9187871
  },
  "permanentlyClosed": false,
  "totalScore": 4.5,
  "isAdvertisement": false,
  "rank": 26,
  "placeId": "ChIJ_____wPTaC4RUJU4gIjTRqU",
  "categories": [
    "ATM",
    "Bank"
  ],
  "cid": "11909438847848060240",
  "url": "https://www.google.com/maps/place/ATM+Bank+BJB+RIPP+(Rencana+Induk+Pusat+Pemerintahan)/@-6.8389889,107.9187871,17z/data=!3m1!4b1!4m5!3m4!1s0x2e68d303ffffffff:0xa546d38880389550!8m2!3d-6.8389889!4d107.9187871?hl=en",
  "searchPageUrl": "https://www.google.com/maps/search/ATM+Sumedang/@-6.8467527,107.9000006,13z/data=!4m2!2m1!6e2?hl=en",
  "searchString": "ATM Sumedang",
  "scrapedAt": "2022-04-19T05:21:52.189Z",
  "reviewsCount": 2,
  "reviewsDistribution": {
    "oneStar": 0,
    "twoStar": 0,
    "threeStar": 0,
    "fourStar": 1,
    "fiveStar": 1
  },
  "reviews": [],
  "orderBy": []
},
{
  "title": "ATM Bank BRI",
  "subTitle": null,
  "price": null,
  "menu": null,
  "categoryName": "ATM",
  "address": "Bank Rakyat Indonesia, Griya Toserba, No.120,, Jl. Raya Cirebon - Bandung, Kotakaler, Kec. Sumedang Utara, Kabupaten Sumedang, Jawa Barat 45621, Indonesia",
  "locatedIn": null,
  "neighborhood": "Bank Rakyat Indonesia, Griya Toserba, No.120,, Jl. Raya Cirebon - Bandung",
  "street": "Bank Rakyat Indonesia, Griya Toserba, No.120,, Jl. Raya Cirebon - Bandung",
  "city": "Sumedang Regency",
  "postalCode": "45621",
  "state": "West Java",
  "countryCode": "ID",
  "plusCode": "5W5G+P9 Kotakaler, Sumedang Regency, West Java, Indonesia",
  "website": null,
  "phone": null,
  "temporarilyClosed": false,
  "location": {
    "lat": -6.8406518,
    "lng": 107.9259588
  },
  "permanentlyClosed": false,
  "totalScore": null,
  "isAdvertisement": false,
  "rank": 24,
  "placeId": "ChIJ0RlHjTbRaC4Rn0IkIyPXsr4",
  "categories": [
    "ATM"
  ],
  "cid": "13741281958974210719",
  "url": "https://www.google.com/maps/place/ATM+Bank+BRI/@-6.8406518,107.9259588,17z/data=!3m1!4b1!4m5!3m4!1s0x2e68d1368d4719d1:0xbeb2d7232324429f!8m2!3d-6.840661!4d107.9259789?hl=en",
  "searchPageUrl": "https://www.google.com/maps/search/ATM+Sumedang/@-6.8467527,107.9000006,13z/data=!4m2!2m1!6e2?hl=en",
  "searchString": "ATM Sumedang",
  "scrapedAt": "2022-04-19T05:22:05.307Z",
  "reviewsCount": 0,
  "reviewsDistribution": {
    "oneStar": 0,
    "twoStar": 0,
    "threeStar": 0,
    "fourStar": 0,
    "fiveStar": 0
  },
  "reviews": [],
  "orderBy": []
},
{
  "title": "ATM BRI UNIT CIPAMEUNGPEUK",
  "subTitle": null,
  "price": null,
  "menu": null,
  "categoryName": "ATM",
  "address": "Jl. R.A. Kartini No.22, Regol Wetan, Kec. Sumedang Sel., Kabupaten Sumedang, Jawa Barat 45311, Indonesia",
  "locatedIn": null,
  "neighborhood": "Jl. R.A. Kartini No.22",
  "street": "Jl. R.A. Kartini No.22",
  "city": "Sumedang Regency",
  "postalCode": "45311",
  "state": "West Java",
  "countryCode": "ID",
  "plusCode": "4WRF+68 Regol Wetan, Sumedang Regency, West Java, Indonesia",
  "website": null,
  "phone": null,
  "temporarilyClosed": false,
  "location": {
    "lat": -6.8594224,
    "lng": 107.92327
  },
  "permanentlyClosed": false,
  "totalScore": 4,
  "isAdvertisement": false,
  "rank": 22,
  "placeId": "ChIJs4QBrBbRaC4RM63f4Zc8YmM",
  "categories": [
    "ATM"
  ],
  "cid": "7161352980499770675",
  "url": "https://www.google.com/maps/place/ATM+BRI+UNIT+CIPAMEUNGPEUK/@-6.8594224,107.92327,17z/data=!3m1!4b1!4m5!3m4!1s0x2e68d116ac0184b3:0x63623c97e1dfad33!8m2!3d-6.859431!4d107.9232698?hl=en",
  "searchPageUrl": "https://www.google.com/maps/search/ATM+Sumedang/@-6.8467527,107.9000006,13z/data=!4m2!2m1!6e2?hl=en",
  "searchString": "ATM Sumedang",
  "scrapedAt": "2022-04-19T05:22:14.698Z",
  "reviewsCount": 4,
  "reviewsDistribution": {
    "oneStar": 1,
    "twoStar": 0,
    "threeStar": 0,
    "fourStar": 0,
    "fiveStar": 3
  },
  "reviews": [],
  "orderBy": []
},
{
  "title": "Mandiri ATM KCP Sumedang",
  "subTitle": null,
  "price": null,
  "menu": null,
  "categoryName": "Bank",
  "address": "Jl. Mayor Abdurachman No. 99, Kabupaten Sumedang, Jawa Barat 45322, Indonesia",
  "locatedIn": null,
  "neighborhood": "Jl. Mayor Abdurachman No. 99",
  "street": "Jl. Mayor Abdurachman No. 99",
  "city": "Sumedang Regency",
  "postalCode": "45322",
  "state": "West Java",
  "countryCode": "ID",
  "plusCode": null,
  "website": "http://www.bankmandiri.co.id/",
  "phone": "+62 21 52997777",
  "temporarilyClosed": false,
  "location": {
    "lat": -6.832858,
    "lng": 107.9531836
  },
  "permanentlyClosed": false,
  "totalScore": null,
  "isAdvertisement": false,
  "rank": 21,
  "placeId": "ChIJ_______TaC4RnystpUP23vo",
  "categories": [
    "ATM",
    "Bank"
  ],
  "cid": "18077156724706192287",
  "url": "https://www.google.com/maps/place/Mandiri+ATM+KCP+Sumedang/@-6.832858,107.9531836,11z/data=!3m1!4b1!4m5!3m4!1s0x2e68d3ffffffffff:0xfadef643a52d2b9f!8m2!3d-6.832858!4d107.9531836?hl=en",
  "searchPageUrl": "https://www.google.com/maps/search/ATM+Sumedang/@-6.8467527,107.9000006,13z/data=!4m2!2m1!6e2?hl=en",
  "searchString": "ATM Sumedang",
  "scrapedAt": "2022-04-19T05:22:21.669Z",
  "reviewsCount": 0,
  "reviewsDistribution": {
    "oneStar": 0,
    "twoStar": 0,
    "threeStar": 0,
    "fourStar": 0,
    "fiveStar": 0
  },
  "reviews": [],
  "orderBy": []
},
{
  "title": "ATM Bank BCA 6776-Sumedang",
  "subTitle": null,
  "price": null,
  "menu": null,
  "categoryName": "Bank",
  "address": "Jl. Mayor Abdurahman, Kotakaler, Sumedang, Kabupaten Sumedang, Jawa Barat 45322, Indonesia",
  "locatedIn": null,
  "neighborhood": "Jl. Mayor Abdurahman",
  "street": "Jl. Mayor Abdurahman",
  "city": "Sumedang Regency",
  "postalCode": "45322",
  "state": "West Java",
  "countryCode": "ID",
  "plusCode": "5W6G+7V Kotakaler, Sumedang Regency, West Java, Indonesia",
  "website": null,
  "phone": "+62 21 0500888",
  "temporarilyClosed": false,
  "location": {
    "lat": -6.839293,
    "lng": 107.927146
  },
  "permanentlyClosed": false,
  "totalScore": null,
  "isAdvertisement": false,
  "rank": 20,
  "placeId": "ChIJV-aLeTbRaC4Rjkj4jI-3_A4",
  "categories": [
    "ATM",
    "Bank"
  ],
  "cid": "1079939837835364494",
  "url": "https://www.google.com/maps/place/ATM+Bank+BCA+6776-Sumedang/@-6.839293,107.927146,17z/data=!3m1!4b1!4m5!3m4!1s0x2e68d136798be657:0xefcb78f8cf8488e!8m2!3d-6.8392611!4d107.9270866?hl=en",
  "searchPageUrl": "https://www.google.com/maps/search/ATM+Sumedang/@37.6,-95.665,4z?hl=en",
  "searchString": "ATM Sumedang",
  "scrapedAt": "2022-04-19T05:22:29.584Z",
  "reviewsCount": 0,
  "reviewsDistribution": {
    "oneStar": 0,
    "twoStar": 0,
    "threeStar": 0,
    "fourStar": 0,
    "fiveStar": 0
  },
  "reviews": [],
  "orderBy": []
},
{
  "title": "Bank BRI ATM - KANTOR PEMDA SUMEDANG",
  "subTitle": null,
  "price": null,
  "menu": null,
  "categoryName": "ATM",
  "address": "Jl. Prabu Gajah Agung No.11, Situ, Kec. Sumedang Utara, Kabupaten Sumedang, Jawa Barat 45621, Indonesia",
  "locatedIn": null,
  "neighborhood": "Jl. Prabu Gajah Agung No.11",
  "street": "Jl. Prabu Gajah Agung No.11",
  "city": "Sumedang Regency",
  "postalCode": "45621",
  "state": "West Java",
  "countryCode": "ID",
  "plusCode": "5W58+PP Situ, Sumedang Regency, West Java, Indonesia",
  "website": "https://bri.co.id/",
  "phone": "+62 21 14017",
  "temporarilyClosed": false,
  "location": {
    "lat": -6.8407071,
    "lng": 107.9168567
  },
  "permanentlyClosed": false,
  "totalScore": null,
  "isAdvertisement": false,
  "rank": 19,
  "placeId": "ChIJ0ysIw53RaC4RJqKAp5eYKBE",
  "categories": [
    "ATM"
  ],
  "cid": "1236405874830909990",
  "url": "https://www.google.com/maps/place/Bank+BRI+ATM+-+KANTOR+PEMDA+SUMEDANG/@-6.8407071,107.9168567,17z/data=!3m1!4b1!4m5!3m4!1s0x2e68d19dc3082bd3:0x11289897a780a226!8m2!3d-6.8407071!4d107.9168567?hl=en",
  "searchPageUrl": "https://www.google.com/maps/search/ATM+Sumedang/@37.6,-95.665,4z?hl=en",
  "searchString": "ATM Sumedang",
  "scrapedAt": "2022-04-19T05:22:36.705Z",
  "reviewsCount": 0,
  "reviewsDistribution": {
    "oneStar": 0,
    "twoStar": 0,
    "threeStar": 0,
    "fourStar": 0,
    "fiveStar": 0
  },
  "reviews": [],
  "orderBy": []
},
{
  "title": "ATM Bank BCA 138A-Indomaret Kebon Koi Sumedang",
  "subTitle": null,
  "price": null,
  "menu": null,
  "categoryName": "Bank",
  "address": "Jl. Kb. Koi No.1, Regol Wetan, Kec. Sumedang Sel., Kabupaten Sumedang, Jawa Barat 45362, Indonesia",
  "locatedIn": null,
  "neighborhood": "Jl. Kb. Koi No.1",
  "street": "Jl. Kb. Koi No.1",
  "city": "Sumedang Regency",
  "postalCode": "45362",
  "state": "West Java",
  "countryCode": "ID",
  "plusCode": "5W2F+28 Regol Wetan, Sumedang Regency, West Java, Indonesia",
  "website": null,
  "phone": "+62 21 0500888",
  "temporarilyClosed": false,
  "location": {
    "lat": -6.8498942,
    "lng": 107.9232888
  },
  "permanentlyClosed": false,
  "totalScore": 4,
  "isAdvertisement": false,
  "rank": 18,
  "placeId": "ChIJN629AzzRaC4RHZ56DXRIKHk",
  "categories": [
    "ATM",
    "Bank"
  ],
  "cid": "8730307540937252381",
  "url": "https://www.google.com/maps/place/ATM+Bank+BCA+138A-Indomaret+Kebon+Koi+Sumedang/@-6.8498942,107.9232888,17z/data=!3m1!4b1!4m5!3m4!1s0x2e68d13c03bdad37:0x792848740d7a9e1d!8m2!3d-6.8498945!4d107.9232887?hl=en",
  "searchPageUrl": "https://www.google.com/maps/search/ATM+Sumedang/@37.6,-95.665,4z?hl=en",
  "searchString": "ATM Sumedang",
  "scrapedAt": "2022-04-19T05:22:44.184Z",
  "reviewsCount": 3,
  "reviewsDistribution": {
    "oneStar": 0,
    "twoStar": 0,
    "threeStar": 1,
    "fourStar": 1,
    "fiveStar": 1
  },
  "reviews": [],
  "orderBy": []
},
{
  "title": "ATM BNI",
  "subTitle": null,
  "price": null,
  "menu": null,
  "categoryName": "ATM",
  "address": "Jl. Raya Cirebon - Bandung No.21, Pasanggrahan Baru, Kec. Sumedang Sel., Kabupaten Sumedang, Jawa Barat 45311, Indonesia",
  "locatedIn": null,
  "neighborhood": "Jl. Raya Cirebon - Bandung No.21",
  "street": "Jl. Raya Cirebon - Bandung No.21",
  "city": "Sumedang Regency",
  "postalCode": "45311",
  "state": "West Java",
  "countryCode": "ID",
  "plusCode": "4VJH+XC Pasanggrahan Baru, Sumedang Regency, West Java, Indonesia",
  "website": null,
  "phone": null,
  "temporarilyClosed": false,
  "location": {
    "lat": -6.8675603,
    "lng": 107.8785998
  },
  "permanentlyClosed": false,
  "totalScore": 3,
  "isAdvertisement": false,
  "rank": 60,
  "placeId": "ChIJiQFzmY3QaC4RpELBlAUSzLE",
  "categories": [
    "ATM"
  ],
  "cid": "12811634855142048420",
  "url": "https://www.google.com/maps/place/ATM+BNI/@-6.8675603,107.8785998,17z/data=!3m1!4b1!4m5!3m4!1s0x2e68d08d99730189:0xb1cc120594c142a4!8m2!3d-6.8675603!4d107.8785998?hl=en",
  "searchPageUrl": "https://www.google.com/maps/search/ATM+Sumedang/@-6.8467527,107.9000006,13z/data=!4m2!2m1!6e2?hl=en",
  "searchString": "ATM Sumedang",
  "scrapedAt": "2022-04-19T05:22:52.578Z",
  "reviewsCount": 1,
  "reviewsDistribution": {
    "oneStar": 0,
    "twoStar": 0,
    "threeStar": 1,
    "fourStar": 0,
    "fiveStar": 0
  },
  "reviews": [],
  "orderBy": []
}]