[{
  "title": "Bengkel Nugraha Prima Motor",
  "subTitle": null,
  "price": null,
  "menu": null,
  "categoryName": "Car repair and maintenance",
  "address": "Jl. P.Kornel No.36, Pasanggrahan Baru, Kec. Sumedang Sel., Kabupaten Sumedang, Jawa Barat 45311, Indonesia",
  "locatedIn": null,
  "neighborhood": "Jl. P.Kornel No.36",
  "street": "Jl. P.Kornel No.36",
  "city": "Sumedang Regency",
  "postalCode": "45311",
  "state": "West Java",
  "countryCode": "ID",
  "plusCode": "4VMM+JX Pasanggrahan Baru, Sumedang Regency, West Java, Indonesia",
  "website": null,
  "phone": "+62 821-2141-5161",
  "temporarilyClosed": false,
  "location": {
    "lat": -6.8659162,
    "lng": 107.8849633
  },
  "permanentlyClosed": false,
  "totalScore": 4.5,
  "isAdvertisement": false,
  "rank": 5,
  "placeId": "ChIJy4l9gu3QaC4RyOSmn-jy4c4",
  "categories": [
    "Car repair and maintenance"
  ],
  "cid": "14907463322497901768",
  "url": "https://www.google.com/maps/place/Bengkel+Nugraha+Prima+Motor/@-6.8659162,107.8849633,17z/data=!3m1!4b1!4m5!3m4!1s0x2e68d0ed827d89cb:0xcee1f2e89fa6e4c8!8m2!3d-6.8659162!4d107.8849633?hl=en",
  "searchPageUrl": "https://www.google.com/maps/search/Bengkel+Sumedang/@37.0625,-95.677068,4z?hl=en",
  "searchString": "Bengkel Sumedang",
  "scrapedAt": "2022-04-19T05:25:31.167Z",
  "reviewsCount": 23,
  "reviewsDistribution": {
    "oneStar": 1,
    "twoStar": 0,
    "threeStar": 1,
    "fourStar": 6,
    "fiveStar": 15
  },
  "reviews": [],
  "orderBy": []
},
{
  "title": "Bengkel Mobil Gumilar Putra",
  "subTitle": null,
  "price": null,
  "menu": null,
  "categoryName": "Car Service Station",
  "address": "Jl. Prabu Gajah Agung No.23, Jatihurip, Kec. Sumedang Utara, Kabupaten Sumedang, Jawa Barat 45621, Indonesia",
  "locatedIn": null,
  "neighborhood": "Jl. Prabu Gajah Agung No.23",
  "street": "Jl. Prabu Gajah Agung No.23",
  "city": "Sumedang Regency",
  "postalCode": "45621",
  "state": "West Java",
  "countryCode": "ID",
  "plusCode": "5WFF+36 Jatihurip, Sumedang Regency, West Java, Indonesia",
  "website": "https://bengkel-mobil-gumilar-putra.business.site/?utm_source=gmb&utm_medium=referral",
  "phone": "+62 822-1403-3583",
  "temporarilyClosed": false,
  "location": {
    "lat": -6.8273273,
    "lng": 107.9230753
  },
  "permanentlyClosed": false,
  "totalScore": 4.6,
  "isAdvertisement": false,
  "rank": 4,
  "placeId": "ChIJLdLpzs7WaC4RsVTqn-QFBDQ",
  "categories": [
    "Auto repair shop"
  ],
  "cid": "3748127269372712113",
  "url": "https://www.google.com/maps/place/Bengkel+Mobil+Gumilar+Putra/@-6.8273273,107.9208866,17z/data=!3m1!4b1!4m5!3m4!1s0x2e68d6cecee9d22d:0x340405e49fea54b1!8m2!3d-6.8273273!4d107.9230753?hl=en",
  "searchPageUrl": "https://www.google.com/maps/search/Bengkel+Sumedang/@37.0625,-95.677068,4z?hl=en",
  "searchString": "Bengkel Sumedang",
  "scrapedAt": "2022-04-19T05:25:32.364Z",
  "reviewsCount": 77,
  "reviewsDistribution": {
    "oneStar": 2,
    "twoStar": 1,
    "threeStar": 2,
    "fourStar": 15,
    "fiveStar": 57
  },
  "reviews": [],
  "orderBy": []
},
{
  "title": "AF Motor Auto Service Station",
  "subTitle": null,
  "price": null,
  "menu": null,
  "categoryName": "Auto repair shop",
  "address": "Jl. Raya Cirebon - Bandung No.278, Kotakaler, Kec. Sumedang Utara, Kabupaten Sumedang, Jawa Barat 45621, Indonesia",
  "locatedIn": null,
  "neighborhood": "Jl. Raya Cirebon - Bandung No.278",
  "street": "Jl. Raya Cirebon - Bandung No.278",
  "city": "Sumedang Regency",
  "postalCode": "45621",
  "state": "West Java",
  "countryCode": "ID",
  "plusCode": "5W7J+W6 Kotakaler, Sumedang Regency, West Java, Indonesia",
  "website": null,
  "phone": "+62 261 203915",
  "temporarilyClosed": false,
  "location": {
    "lat": -6.835135,
    "lng": 107.9305864
  },
  "permanentlyClosed": false,
  "totalScore": 4.1,
  "isAdvertisement": false,
  "rank": 33,
  "placeId": "ChIJC154lkrRaC4RPK0X552nuMY",
  "categories": [
    "Auto repair shop",
    "Car repair and maintenance"
  ],
  "cid": "14319379311853284668",
  "url": "https://www.google.com/maps/place/AF+Motor+Auto+Service+Station/@-6.835135,107.9283977,17z/data=!3m1!4b1!4m5!3m4!1s0x2e68d14a96785e0b:0xc6b8a79de717ad3c!8m2!3d-6.8351247!4d107.9305762?hl=en",
  "searchPageUrl": "https://www.google.com/maps/search/Bengkel+Sumedang/@-6.8465871,107.8416259,12z?hl=en",
  "searchString": "Bengkel Sumedang",
  "scrapedAt": "2022-04-19T05:25:40.959Z",
  "reviewsCount": 19,
  "reviewsDistribution": {
    "oneStar": 2,
    "twoStar": 0,
    "threeStar": 2,
    "fourStar": 5,
    "fiveStar": 10
  },
  "reviews": [],
  "orderBy": []
},
{
  "title": "Arvin Motor",
  "subTitle": null,
  "price": null,
  "menu": null,
  "categoryName": "Motorcycle repair shop",
  "address": "Jl. Tampomas No.63, Kotakaler, Kec. Sumedang Utara, Kabupaten Sumedang, Jawa Barat 45322, Indonesia",
  "locatedIn": null,
  "neighborhood": "Jl. Tampomas No.63",
  "street": "Jl. Tampomas No.63",
  "city": "Sumedang Regency",
  "postalCode": "45322",
  "state": "West Java",
  "countryCode": "ID",
  "plusCode": "5W3G+H2 Kotakaler, Sumedang Regency, West Java, Indonesia",
  "website": null,
  "phone": "+62 822-1941-6686",
  "temporarilyClosed": false,
  "location": {
    "lat": -6.8460761,
    "lng": 107.9250188
  },
  "permanentlyClosed": false,
  "totalScore": 4.4,
  "isAdvertisement": false,
  "rank": 45,
  "placeId": "ChIJ4RGoQCbRaC4RLoLEcff-9Cc",
  "categories": [
    "Motorcycle repair shop"
  ],
  "cid": "2879206400515670574",
  "url": "https://www.google.com/maps/place/Arvin+Motor/@-6.8460761,107.9228301,17z/data=!3m1!4b1!4m5!3m4!1s0x2e68d12640a811e1:0x27f4fef771c4822e!8m2!3d-6.8460761!4d107.9250188?hl=en",
  "searchPageUrl": "https://www.google.com/maps/search/Bengkel+Sumedang/@-6.8592786,107.8861186,13z/data=!3m1!4b1?hl=en",
  "searchString": "Bengkel Sumedang",
  "scrapedAt": "2022-04-19T05:25:45.765Z",
  "reviewsCount": 68,
  "reviewsDistribution": {
    "oneStar": 4,
    "twoStar": 0,
    "threeStar": 4,
    "fourStar": 14,
    "fiveStar": 46
  },
  "reviews": [],
  "orderBy": []
},
{
  "title": "IDF MOTOR_stel velg jari-jari motor dan sepeda",
  "subTitle": null,
  "price": null,
  "menu": null,
  "categoryName": "Two Wheeler Repair Shop",
  "address": "Jl. Talun, Regol Wetan, Kec. Sumedang Sel., Kabupaten Sumedang, Jawa Barat 45311, Indonesia",
  "locatedIn": null,
  "neighborhood": "Jl. Talun",
  "street": "Jl. Talun",
  "city": "Sumedang Regency",
  "postalCode": "45311",
  "state": "West Java",
  "countryCode": "ID",
  "plusCode": "4WXF+5Q Regol Wetan, Sumedang Regency, West Java, Indonesia",
  "website": null,
  "phone": "+62 852-9415-4522",
  "temporarilyClosed": false,
  "location": {
    "lat": -6.852067,
    "lng": 107.9244744
  },
  "permanentlyClosed": false,
  "totalScore": 4.6,
  "isAdvertisement": false,
  "rank": 60,
  "placeId": "ChIJ9cz4Yj7RaC4RSTMVvOhc5co",
  "categories": [
    "Motorcycle repair shop"
  ],
  "cid": "14620193919985857353",
  "url": "https://www.google.com/maps/place/IDF+MOTOR_stel+velg+jari-jari+motor+dan+sepeda/@-6.852067,107.9222857,17z/data=!3m1!4b1!4m5!3m4!1s0x2e68d13e62f8ccf5:0xcae55ce8bc153349!8m2!3d-6.852075!4d107.924474?hl=en",
  "searchPageUrl": "https://www.google.com/maps/search/Bengkel+Sumedang/@-6.8592786,107.8861186,13z/data=!3m1!4b1?hl=en",
  "searchString": "Bengkel Sumedang",
  "scrapedAt": "2022-04-19T05:25:47.295Z",
  "reviewsCount": 15,
  "reviewsDistribution": {
    "oneStar": 0,
    "twoStar": 0,
    "threeStar": 1,
    "fourStar": 4,
    "fiveStar": 10
  },
  "reviews": [],
  "orderBy": []
},
{
  "title": "ChepyNausaOldGarage",
  "subTitle": null,
  "price": null,
  "menu": null,
  "categoryName": "Engine rebuilding service",
  "address": "Jl. Prabu Tadjimalela, Kotakaler, Kec. Sumedang Utara, Kabupaten Sumedang, Jawa Barat 45621, Indonesia",
  "locatedIn": null,
  "neighborhood": "Jl. Prabu Tadjimalela",
  "street": "Jl. Prabu Tadjimalela",
  "city": "Sumedang Regency",
  "postalCode": "45621",
  "state": "West Java",
  "countryCode": "ID",
  "plusCode": "5W6M+Q7 Kotakaler, Sumedang Regency, West Java, Indonesia",
  "website": null,
  "phone": null,
  "temporarilyClosed": false,
  "location": {
    "lat": -6.83812,
    "lng": 107.9331405
  },
  "permanentlyClosed": false,
  "totalScore": null,
  "isAdvertisement": false,
  "rank": 59,
  "placeId": "ChIJnRRa-9XRaC4R5d7vHD-Z614",
  "categories": [
    "Engine rebuilding service"
  ],
  "cid": "6839728955439701733",
  "url": "https://www.google.com/maps/place/ChepyNausaOldGarage/@-6.83812,107.9309518,17z/data=!3m1!4b1!4m5!3m4!1s0x2e68d1d5fb5a149d:0x5eeb993f1cefdee5!8m2!3d-6.83812!4d107.9331405?hl=en",
  "searchPageUrl": "https://www.google.com/maps/search/Bengkel+Sumedang/@-6.8592786,107.8861186,13z/data=!3m1!4b1?hl=en",
  "searchString": "Bengkel Sumedang",
  "scrapedAt": "2022-04-19T05:25:55.688Z",
  "reviewsCount": 0,
  "reviewsDistribution": {
    "oneStar": 0,
    "twoStar": 0,
    "threeStar": 0,
    "fourStar": 0,
    "fiveStar": 0
  },
  "reviews": [],
  "orderBy": []
},
{
  "title": "CV.TEKINDO MEDAL PUJARAN",
  "subTitle": null,
  "price": null,
  "menu": null,
  "categoryName": "Auto repair shop",
  "address": "Jl. Tenjolaya, Sukagalih, Kec. Sumedang Sel., Kabupaten Sumedang, Jawa Barat 45311, Indonesia",
  "locatedIn": null,
  "neighborhood": "Jl. Tenjolaya",
  "street": "Jl. Tenjolaya",
  "city": "Sumedang Regency",
  "postalCode": "45311",
  "state": "West Java",
  "countryCode": "ID",
  "plusCode": "4WQJ+5V Sukagalih, Sumedang Regency, West Java, Indonesia",
  "website": null,
  "phone": "+62 852-2291-5150",
  "temporarilyClosed": false,
  "location": {
    "lat": -6.8620217,
    "lng": 107.9322487
  },
  "permanentlyClosed": false,
  "totalScore": 4.1,
  "isAdvertisement": false,
  "rank": 58,
  "placeId": "ChIJAUdmzlrRaC4RFBagAIyglbE",
  "categories": [
    "Auto repair shop"
  ],
  "cid": "12796310439409489428",
  "url": "https://www.google.com/maps/place/CV.TEKINDO+MEDAL+PUJARAN/@-6.8620217,107.93006,17z/data=!3m1!4b1!4m5!3m4!1s0x2e68d15ace664701:0xb195a08c00a01614!8m2!3d-6.8620435!4d107.9322564?hl=en",
  "searchPageUrl": "https://www.google.com/maps/search/Bengkel+Sumedang/@-6.8592786,107.8861186,13z/data=!3m1!4b1?hl=en",
  "searchString": "Bengkel Sumedang",
  "scrapedAt": "2022-04-19T05:26:03.465Z",
  "reviewsCount": 7,
  "reviewsDistribution": {
    "oneStar": 0,
    "twoStar": 0,
    "threeStar": 3,
    "fourStar": 0,
    "fiveStar": 4
  },
  "reviews": [],
  "orderBy": []
},
{
  "title": "Ajin25 Motor",
  "subTitle": null,
  "price": null,
  "menu": null,
  "categoryName": "Oil change service",
  "address": "5WM5+FGV, Jatimulya, Sumedang Utara, Sumedang Regency, West Java 45621, Indonesia             5WM5+FGV, Jatimulya, Kec. Sumedang Utara, Kabupaten Sumedang, Jawa Barat 45621",
  "locatedIn": null,
  "neighborhood": "5WM5+FGV",
  "street": "5WM5+FGV",
  "city": "Sumedang Regency",
  "postalCode": "45621",
  "state": "West Java",
  "countryCode": "ID",
  "plusCode": null,
  "website": null,
  "phone": "+62 822-4021-5123",
  "temporarilyClosed": false,
  "location": {
    "lat": -6.8162657,
    "lng": 107.9088017
  },
  "permanentlyClosed": false,
  "totalScore": 4.8,
  "isAdvertisement": false,
  "rank": 57,
  "placeId": "ChIJeyGoVN7WaC4RAU1UTPB-eWo",
  "categories": [
    "Oil change service"
  ],
  "cid": "7672303010740194561",
  "url": "https://www.google.com/maps/place/Ajin25+Motor/@-6.8162657,107.906613,17z/data=!3m1!4b1!4m5!3m4!1s0x2e68d6de54a8217b:0x6a797ef04c544d01!8m2!3d-6.8162117!4d107.9088228?hl=en",
  "searchPageUrl": "https://www.google.com/maps/search/Bengkel+Sumedang/@-6.8592786,107.8861186,13z/data=!3m1!4b1?hl=en",
  "searchString": "Bengkel Sumedang",
  "scrapedAt": "2022-04-19T05:26:13.368Z",
  "reviewsCount": 14,
  "reviewsDistribution": {
    "oneStar": 0,
    "twoStar": 0,
    "threeStar": 1,
    "fourStar": 1,
    "fiveStar": 12
  },
  "reviews": [],
  "orderBy": []
},
{
  "title": "FIRDAUS AUTOCAR",
  "subTitle": null,
  "price": null,
  "menu": null,
  "categoryName": "Auto repair shop",
  "address": "Jl. Prabu Gajah Agung No.07, Jatihurip, Kec. Sumedang Utara, Kabupaten Sumedang, Jawa Barat 45621, Indonesia",
  "locatedIn": null,
  "neighborhood": "Jl. Prabu Gajah Agung No.07",
  "street": "Jl. Prabu Gajah Agung No.07",
  "city": "Sumedang Regency",
  "postalCode": "45621",
  "state": "West Java",
  "countryCode": "ID",
  "plusCode": "5WFC+HQ Jatihurip, Sumedang Regency, West Java, Indonesia",
  "website": "http://www.instagram.com/firdausautocar_/",
  "phone": "+62 811-2380-495",
  "temporarilyClosed": false,
  "location": {
    "lat": -6.826103,
    "lng": 107.9219664
  },
  "permanentlyClosed": false,
  "totalScore": 5,
  "isAdvertisement": false,
  "rank": 56,
  "placeId": "ChIJtUURghjXaC4R0BwUdd2m81Q",
  "categories": [
    "Auto repair shop"
  ],
  "cid": "6121419788608871632",
  "url": "https://www.google.com/maps/place/FIRDAUS+AUTOCAR/@-6.826103,107.9197777,17z/data=!3m1!4b1!4m5!3m4!1s0x2e68d718821145b5:0x54f3a6dd75141cd0!8m2!3d-6.826103!4d107.9219664?hl=en",
  "searchPageUrl": "https://www.google.com/maps/search/Bengkel+Sumedang/@-6.8592786,107.8861186,13z/data=!3m1!4b1?hl=en",
  "searchString": "Bengkel Sumedang",
  "scrapedAt": "2022-04-19T05:26:23.065Z",
  "reviewsCount": 4,
  "reviewsDistribution": {
    "oneStar": 0,
    "twoStar": 0,
    "threeStar": 0,
    "fourStar": 0,
    "fiveStar": 4
  },
  "reviews": [],
  "orderBy": []
},
{
  "title": "Bengkel Motor Idan Poetra",
  "subTitle": null,
  "price": null,
  "menu": null,
  "categoryName": "Motorcycle repair shop",
  "address": "Ketib No.07, Kotakaler, Kec. Sumedang Utara, Kabupaten Sumedang, Jawa Barat 45322, Indonesia",
  "locatedIn": null,
  "neighborhood": "Ketib No.07",
  "street": "Ketib No.07",
  "city": "Sumedang Regency",
  "postalCode": "45322",
  "state": "West Java",
  "countryCode": "ID",
  "plusCode": "5W5G+3M Kotakaler, Sumedang Regency, West Java, Indonesia",
  "website": "https://bengkel-motor-idan-poetra.business.site/?utm_source=gmb&utm_medium=referral",
  "phone": "+62 823-2185-5163",
  "temporarilyClosed": false,
  "location": {
    "lat": -6.8423487,
    "lng": 107.9266368
  },
  "permanentlyClosed": false,
  "totalScore": 4.5,
  "isAdvertisement": false,
  "rank": 55,
  "placeId": "ChIJ-YuYFzjRaC4RJ5qmBCdnB84",
  "categories": [
    "Motorcycle repair shop",
    "Mechanic",
    "Motorcycle parts store",
    "Repair service"
  ],
  "cid": "14845948113929542183",
  "url": "https://www.google.com/maps/place/Bengkel+Motor+Idan+Poetra/@-6.8423487,107.9244481,17z/data=!3m1!4b1!4m5!3m4!1s0x2e68d13817988bf9:0xce07672704a69a27!8m2!3d-6.8423487!4d107.9266368?hl=en",
  "searchPageUrl": "https://www.google.com/maps/search/Bengkel+Sumedang/@-6.8592786,107.8861186,13z/data=!3m1!4b1?hl=en",
  "searchString": "Bengkel Sumedang",
  "scrapedAt": "2022-04-19T05:26:35.648Z",
  "reviewsCount": 8,
  "reviewsDistribution": {
    "oneStar": 1,
    "twoStar": 0,
    "threeStar": 0,
    "fourStar": 0,
    "fiveStar": 7
  },
  "reviews": [],
  "orderBy": []
},
{
  "title": "Ojoy Bengkel",
  "subTitle": null,
  "price": null,
  "menu": null,
  "categoryName": "Salvage yard",
  "address": "Jl. Bojong Ragadiem, Kotakulon, Kec. Sumedang Sel., Kabupaten Sumedang, Jawa Barat 45311, Indonesia",
  "locatedIn": null,
  "neighborhood": "Jl. Bojong Ragadiem",
  "street": "Jl. Bojong Ragadiem",
  "city": "Sumedang Regency",
  "postalCode": "45311",
  "state": "West Java",
  "countryCode": "ID",
  "plusCode": "5W27+95 Kotakulon, Sumedang Regency, West Java, Indonesia",
  "website": null,
  "phone": null,
  "temporarilyClosed": false,
  "location": {
    "lat": -6.8490917,
    "lng": 107.9128982
  },
  "permanentlyClosed": false,
  "totalScore": null,
  "isAdvertisement": false,
  "rank": 54,
  "placeId": "ChIJV_8UEiTRaC4RPb4edGZ8DD8",
  "categories": [
    "Salvage yard"
  ],
  "cid": "4543142903586668093",
  "url": "https://www.google.com/maps/place/Ojoy+Bengkel/@-6.8490917,107.9107095,17z/data=!3m1!4b1!4m5!3m4!1s0x2e68d1241214ff57:0x3f0c7c66741ebe3d!8m2!3d-6.8490917!4d107.9128982?hl=en",
  "searchPageUrl": "https://www.google.com/maps/search/Bengkel+Sumedang/@-6.8592786,107.8861186,13z/data=!3m1!4b1?hl=en",
  "searchString": "Bengkel Sumedang",
  "scrapedAt": "2022-04-19T05:26:48.457Z",
  "reviewsCount": 0,
  "reviewsDistribution": {
    "oneStar": 0,
    "twoStar": 0,
    "threeStar": 0,
    "fourStar": 0,
    "fiveStar": 0
  },
  "reviews": [],
  "orderBy": []
},
{
  "title": "Mulya Abadi Motor",
  "subTitle": null,
  "price": null,
  "menu": null,
  "categoryName": "Motorcycle repair shop",
  "address": "Jl. Prabu Tadjimalela No.20, Kotakaler, Kec. Sumedang Utara, Kabupaten Sumedang, Jawa Barat 45621, Indonesia",
  "locatedIn": null,
  "neighborhood": "Jl. Prabu Tadjimalela No.20",
  "street": "Jl. Prabu Tadjimalela No.20",
  "city": "Sumedang Regency",
  "postalCode": "45621",
  "state": "West Java",
  "countryCode": "ID",
  "plusCode": "5W6M+P7 Kotakaler, Sumedang Regency, West Java, Indonesia",
  "website": null,
  "phone": "+62 852-2125-3677",
  "temporarilyClosed": false,
  "location": {
    "lat": -6.8382499,
    "lng": 107.9332154
  },
  "permanentlyClosed": false,
  "totalScore": 4.5,
  "isAdvertisement": false,
  "rank": 53,
  "placeId": "ChIJB0y92kvRaC4R812P4CrQrxE",
  "categories": [
    "Motorcycle repair shop"
  ],
  "cid": "1274466102143835635",
  "url": "https://www.google.com/maps/place/Mulya+Abadi+Motor/@-6.8382499,107.9310267,17z/data=!3m1!4b1!4m5!3m4!1s0x2e68d14bdabd4c07:0x11afd02ae08f5df3!8m2!3d-6.8382499!4d107.9332154?hl=en",
  "searchPageUrl": "https://www.google.com/maps/search/Bengkel+Sumedang/@-6.8592786,107.8861186,13z/data=!3m1!4b1?hl=en",
  "searchString": "Bengkel Sumedang",
  "scrapedAt": "2022-04-19T05:27:02.429Z",
  "reviewsCount": 15,
  "reviewsDistribution": {
    "oneStar": 0,
    "twoStar": 1,
    "threeStar": 0,
    "fourStar": 4,
    "fiveStar": 10
  },
  "reviews": [],
  "orderBy": []
},
{
  "title": "Motozhav",
  "subTitle": null,
  "price": null,
  "menu": null,
  "categoryName": "Motorcycle repair shop",
  "address": "Jl. Angkrek No.107, Situ, Kec. Sumedang Utara, Kabupaten Sumedang, Jawa Barat 45322, Indonesia",
  "locatedIn": null,
  "neighborhood": "Jl. Angkrek No.107",
  "street": "Jl. Angkrek No.107",
  "city": "Sumedang Regency",
  "postalCode": "45322",
  "state": "West Java",
  "countryCode": "ID",
  "plusCode": "5W8F+6M Situ, Sumedang Regency, West Java, Indonesia",
  "website": null,
  "phone": "+62 823-1523-2777",
  "temporarilyClosed": false,
  "location": {
    "lat": -6.8344951,
    "lng": 107.9241943
  },
  "permanentlyClosed": false,
  "totalScore": 5,
  "isAdvertisement": false,
  "rank": 52,
  "placeId": "ChIJNzajrzTRaC4RqNV673u-z4E",
  "categories": [
    "Motorcycle repair shop"
  ],
  "cid": "9353904390579869096",
  "url": "https://www.google.com/maps/place/Motozhav/@-6.8344951,107.9220056,17z/data=!3m1!4b1!4m5!3m4!1s0x2e68d134afa33637:0x81cfbe7bef7ad5a8!8m2!3d-6.8344942!4d107.924196?hl=en",
  "searchPageUrl": "https://www.google.com/maps/search/Bengkel+Sumedang/@-6.8592786,107.8861186,13z/data=!3m1!4b1?hl=en",
  "searchString": "Bengkel Sumedang",
  "scrapedAt": "2022-04-19T05:27:28.874Z",
  "reviewsCount": 4,
  "reviewsDistribution": {
    "oneStar": 0,
    "twoStar": 0,
    "threeStar": 0,
    "fourStar": 0,
    "fiveStar": 4
  },
  "reviews": [],
  "orderBy": []
},
{
  "title": "Oem Garage",
  "subTitle": null,
  "price": null,
  "menu": null,
  "categoryName": "Auto body shop",
  "address": "Jl. Cut Nyak Dien No.93, RT./rw/RW.002/007, Regol Wetan, Kec. Sumedang Sel., Kabupaten Sumedang, Jawa Barat 45311, Indonesia",
  "locatedIn": null,
  "neighborhood": "Jl. Cut Nyak Dien No.93, RT./rw/RW.002/007",
  "street": "Jl. Cut Nyak Dien No.93, RT./rw/RW.002/007",
  "city": "Sumedang Regency",
  "postalCode": "45311",
  "state": "West Java",
  "countryCode": "ID",
  "plusCode": "4WPF+X2 Regol Wetan, Sumedang Regency, West Java, Indonesia",
  "website": null,
  "phone": "+62 812-2302-5008",
  "temporarilyClosed": false,
  "location": {
    "lat": -6.8625948,
    "lng": 107.9225387
  },
  "permanentlyClosed": false,
  "totalScore": null,
  "isAdvertisement": false,
  "rank": 51,
  "placeId": "ChIJ4d_rh9HRaC4RWPqpIBNFmMc",
  "categories": [
    "Auto body shop"
  ],
  "cid": "14382321358462384728",
  "url": "https://www.google.com/maps/place/Oem+Garage/@-6.8625948,107.92035,17z/data=!3m1!4b1!4m5!3m4!1s0x2e68d1d187ebdfe1:0xc798451320a9fa58!8m2!3d-6.8625947!4d107.9225382?hl=en",
  "searchPageUrl": "https://www.google.com/maps/search/Bengkel+Sumedang/@-6.8592786,107.8861186,13z/data=!3m1!4b1?hl=en",
  "searchString": "Bengkel Sumedang",
  "scrapedAt": "2022-04-19T05:27:37.671Z",
  "reviewsCount": 0,
  "reviewsDistribution": {
    "oneStar": 0,
    "twoStar": 0,
    "threeStar": 0,
    "fourStar": 0,
    "fiveStar": 0
  },
  "reviews": [],
  "orderBy": []
},
{
  "title": "Mandiri Motorcycle Repair Shop",
  "subTitle": null,
  "price": null,
  "menu": null,
  "categoryName": "Motorcycle repair shop",
  "address": "Jl. Pagarbetis, Cipameungpeuk, Kec. Sumedang Sel., Kabupaten Sumedang, Jawa Barat 45315, Indonesia",
  "locatedIn": null,
  "neighborhood": "Jl. Pagarbetis",
  "street": "Jl. Pagarbetis",
  "city": "Sumedang Regency",
  "postalCode": "45315",
  "state": "West Java",
  "countryCode": "ID",
  "plusCode": "4WQJ+PM Cipameungpeuk, Sumedang Regency, West Java, Indonesia",
  "website": null,
  "phone": null,
  "temporarilyClosed": false,
  "location": {
    "lat": -6.8606507,
    "lng": 107.9317298
  },
  "permanentlyClosed": false,
  "totalScore": 5,
  "isAdvertisement": false,
  "rank": 50,
  "placeId": "ChIJp7U9g5DRaC4RoJy0-JBqgCs",
  "categories": [
    "Motorcycle repair shop"
  ],
  "cid": "3134622511530286240",
  "url": "https://www.google.com/maps/place/Mandiri+Motorcycle+Repair+Shop/@-6.8606507,107.9295411,17z/data=!3m1!4b1!4m5!3m4!1s0x2e68d190833db5a7:0x2b806a90f8b49ca0!8m2!3d-6.8606507!4d107.9317298?hl=en",
  "searchPageUrl": "https://www.google.com/maps/search/Bengkel+Sumedang/@-6.8592786,107.8861186,13z/data=!3m1!4b1?hl=en",
  "searchString": "Bengkel Sumedang",
  "scrapedAt": "2022-04-19T05:27:50.910Z",
  "reviewsCount": 1,
  "reviewsDistribution": {
    "oneStar": 0,
    "twoStar": 0,
    "threeStar": 0,
    "fourStar": 0,
    "fiveStar": 1
  },
  "reviews": [],
  "orderBy": []
},
{
  "title": "UBEXBW GARAGE",
  "subTitle": null,
  "price": null,
  "menu": null,
  "categoryName": "Auto repair shop",
  "address": "Rajawali, Rancamulya, Kec. Sumedang Utara, Kabupaten Sumedang, Jawa Barat 45621, Indonesia",
  "locatedIn": null,
  "neighborhood": "Rajawali",
  "street": "Rajawali",
  "city": "Sumedang Regency",
  "postalCode": "45621",
  "state": "West Java",
  "countryCode": "ID",
  "plusCode": "5W4Q+PG Rancamulya, Sumedang Regency, West Java, Indonesia",
  "website": null,
  "phone": "+62 853-2038-7802",
  "temporarilyClosed": false,
  "location": {
    "lat": -6.843197,
    "lng": 107.9388208
  },
  "permanentlyClosed": false,
  "totalScore": 5,
  "isAdvertisement": false,
  "rank": 49,
  "placeId": "ChIJp0nrv9nRaC4R0xwUxeRsoUg",
  "categories": [
    "Auto repair shop"
  ],
  "cid": "5233583971795999955",
  "url": "https://www.google.com/maps/place/UBEXBW+GARAGE/@-6.843197,107.9366321,17z/data=!3m1!4b1!4m5!3m4!1s0x2e68d1d9bfeb49a7:0x48a16ce4c5141cd3!8m2!3d-6.843198!4d107.9388203?hl=en",
  "searchPageUrl": "https://www.google.com/maps/search/Bengkel+Sumedang/@-6.8592786,107.8861186,13z/data=!3m1!4b1?hl=en",
  "searchString": "Bengkel Sumedang",
  "scrapedAt": "2022-04-19T05:28:06.701Z",
  "reviewsCount": 2,
  "reviewsDistribution": {
    "oneStar": 0,
    "twoStar": 0,
    "threeStar": 0,
    "fourStar": 0,
    "fiveStar": 2
  },
  "reviews": [],
  "orderBy": []
},
{
  "title": "Bengkel pak lucky",
  "subTitle": null,
  "price": null,
  "menu": null,
  "categoryName": "Auto restoration service",
  "address": "5W87+PVP, Mekarjaya, Sumedang Utara, Sumedang Regency, West Java 45621, Indonesia             5W87+PVP, Mekarjaya, Kec. Sumedang Utara, Kabupaten Sumedang, Jawa Barat 45621",
  "locatedIn": null,
  "neighborhood": "5W87+PVP",
  "street": "5W87+PVP",
  "city": "Sumedang Regency",
  "postalCode": "45621",
  "state": "West Java",
  "countryCode": "ID",
  "plusCode": null,
  "website": null,
  "phone": null,
  "temporarilyClosed": false,
  "location": {
    "lat": -6.8331573,
    "lng": 107.9146887
  },
  "permanentlyClosed": false,
  "totalScore": 5,
  "isAdvertisement": false,
  "rank": 48,
  "placeId": "ChIJF4FOCKbXaC4ROZGsJv9m2x8",
  "categories": [
    "Auto restoration service"
  ],
  "cid": "2295541681126936889",
  "url": "https://www.google.com/maps/place/Bengkel+pak+lucky/@-6.8331573,107.9125,17z/data=!3m1!4b1!4m5!3m4!1s0x2e68d7a6084e8117:0x1fdb66ff26ac9139!8m2!3d-6.8331324!4d107.9146935?hl=en",
  "searchPageUrl": "https://www.google.com/maps/search/Bengkel+Sumedang/@-6.8592786,107.8861186,13z/data=!3m1!4b1?hl=en",
  "searchString": "Bengkel Sumedang",
  "scrapedAt": "2022-04-19T05:28:16.075Z",
  "reviewsCount": 9,
  "reviewsDistribution": {
    "oneStar": 0,
    "twoStar": 0,
    "threeStar": 0,
    "fourStar": 0,
    "fiveStar": 9
  },
  "reviews": [],
  "orderBy": []
},
{
  "title": "An Service",
  "subTitle": null,
  "price": null,
  "menu": null,
  "categoryName": "Car repair and maintenance",
  "address": "JL Prabu Gajah Agung, RT 7 RW 3, Situ, Kec. Sumedang Utara, Kabupaten Sumedang, Jawa Barat 45621, Indonesia",
  "locatedIn": null,
  "neighborhood": "JL Prabu Gajah Agung, RT 7 RW 3",
  "street": "JL Prabu Gajah Agung, RT 7 RW 3",
  "city": "Sumedang Regency",
  "postalCode": "45621",
  "state": "West Java",
  "countryCode": "ID",
  "plusCode": "5WC9+6G Situ, Sumedang Regency, West Java, Indonesia",
  "website": null,
  "phone": "+62 853-2455-1012",
  "temporarilyClosed": false,
  "location": {
    "lat": -6.8294787,
    "lng": 107.9188517
  },
  "permanentlyClosed": false,
  "totalScore": 4.6,
  "isAdvertisement": false,
  "rank": 47,
  "placeId": "ChIJTRj25c3WaC4Rh_AZLYzrDXo",
  "categories": [
    "Car repair and maintenance"
  ],
  "cid": "8794944634609070215",
  "url": "https://www.google.com/maps/place/An+Service/@-6.8294787,107.916663,17z/data=!3m1!4b1!4m5!3m4!1s0x2e68d6cde5f6184d:0x7a0deb8c2d19f087!8m2!3d-6.8294794!4d107.9188607?hl=en",
  "searchPageUrl": "https://www.google.com/maps/search/Bengkel+Sumedang/@-6.8592786,107.8861186,13z/data=!3m1!4b1?hl=en",
  "searchString": "Bengkel Sumedang",
  "scrapedAt": "2022-04-19T05:28:27.966Z",
  "reviewsCount": 5,
  "reviewsDistribution": {
    "oneStar": 0,
    "twoStar": 0,
    "threeStar": 1,
    "fourStar": 0,
    "fiveStar": 4
  },
  "reviews": [],
  "orderBy": []
},
{
  "title": "Bengkel Jmm Racing Team",
  "subTitle": null,
  "price": null,
  "menu": null,
  "categoryName": "Motorcycle repair shop",
  "address": "Jl. Prabu Gajah Agung No.99, Jatihurip, Kec. Sumedang Utara, Kabupaten Sumedang, Jawa Barat 45621, Indonesia",
  "locatedIn": null,
  "neighborhood": "Jl. Prabu Gajah Agung No.99",
  "street": "Jl. Prabu Gajah Agung No.99",
  "city": "Sumedang Regency",
  "postalCode": "45621",
  "state": "West Java",
  "countryCode": "ID",
  "plusCode": "5WFC+GC Jatihurip, Sumedang Regency, West Java, Indonesia",
  "website": null,
  "phone": null,
  "temporarilyClosed": false,
  "location": {
    "lat": -6.8261287,
    "lng": 107.9210847
  },
  "permanentlyClosed": false,
  "totalScore": 5,
  "isAdvertisement": false,
  "rank": 46,
  "placeId": "ChIJCU-QA8_WaC4Rl49qmYpgMrA",
  "categories": [
    "Motorcycle repair shop"
  ],
  "cid": "12696316447906500503",
  "url": "https://www.google.com/maps/place/Bengkel+Jmm+Racing+Team/@-6.8261287,107.918896,17z/data=!3m1!4b1!4m5!3m4!1s0x2e68d6cf03904f09:0xb032608a996a8f97!8m2!3d-6.8261287!4d107.9210847?hl=en",
  "searchPageUrl": "https://www.google.com/maps/search/Bengkel+Sumedang/@-6.8592786,107.8861186,13z/data=!3m1!4b1?hl=en",
  "searchString": "Bengkel Sumedang",
  "scrapedAt": "2022-04-19T05:28:37.360Z",
  "reviewsCount": 1,
  "reviewsDistribution": {
    "oneStar": 0,
    "twoStar": 0,
    "threeStar": 0,
    "fourStar": 0,
    "fiveStar": 1
  },
  "reviews": [],
  "orderBy": []
},
{
  "title": "Bengkel Tune up Arjuna Tech Racing Project",
  "subTitle": null,
  "price": null,
  "menu": null,
  "categoryName": "Auto tune up service",
  "address": "Jln.Bojong Dsn.Sawah Lega, RT.03/RW.04, Jatimulya, Kec. Sumedang Utara, Kabupaten Sumedang, Jawa Barat 45361, Indonesia",
  "locatedIn": null,
  "neighborhood": "Jln.Bojong Dsn.Sawah Lega, RT.03/RW.04",
  "street": "Jln.Bojong Dsn.Sawah Lega, RT.03/RW.04",
  "city": "Sumedang Regency",
  "postalCode": "45361",
  "state": "West Java",
  "countryCode": "ID",
  "plusCode": "5WF9+2M Jatimulya, Sumedang Regency, West Java, Indonesia",
  "website": null,
  "phone": "+62 878-2530-9247",
  "temporarilyClosed": false,
  "location": {
    "lat": -6.8273875,
    "lng": 107.9192277
  },
  "permanentlyClosed": false,
  "totalScore": 3.5,
  "isAdvertisement": false,
  "rank": 44,
  "placeId": "ChIJ8X6HyEjXaC4RffcyoRNJ7QU",
  "categories": [
    "Auto tune up service"
  ],
  "cid": "427077888327743357",
  "url": "https://www.google.com/maps/place/Bengkel+Tune+up+Arjuna+Tech+Racing+Project/@-6.8273875,107.917039,17z/data=!3m1!4b1!4m5!3m4!1s0x2e68d748c8877ef1:0x5ed4913a132f77d!8m2!3d-6.8273875!4d107.9192277?hl=en",
  "searchPageUrl": "https://www.google.com/maps/search/Bengkel+Sumedang/@-6.8592786,107.8861186,13z/data=!3m1!4b1?hl=en",
  "searchString": "Bengkel Sumedang",
  "scrapedAt": "2022-04-19T05:28:47.271Z",
  "reviewsCount": 2,
  "reviewsDistribution": {
    "oneStar": 0,
    "twoStar": 1,
    "threeStar": 0,
    "fourStar": 0,
    "fiveStar": 1
  },
  "reviews": [],
  "orderBy": []
},
{
  "title": "Workshop E-60HM~HM Racing",
  "subTitle": null,
  "price": null,
  "menu": null,
  "categoryName": "Engine rebuilding service",
  "address": "Jl. Prabu Gajah Agung No.131, Situ, Kec. Sumedang Utara, Kabupaten Sumedang, Jawa Barat 45621, Indonesia",
  "locatedIn": null,
  "neighborhood": "Jl. Prabu Gajah Agung No.131",
  "street": "Jl. Prabu Gajah Agung No.131",
  "city": "Sumedang Regency",
  "postalCode": "45621",
  "state": "West Java",
  "countryCode": "ID",
  "plusCode": "5WF9+3V Situ, Sumedang Regency, West Java, Indonesia",
  "website": null,
  "phone": null,
  "temporarilyClosed": false,
  "location": {
    "lat": -6.8272751,
    "lng": 107.9196758
  },
  "permanentlyClosed": false,
  "totalScore": 3,
  "isAdvertisement": false,
  "rank": 43,
  "placeId": "ChIJzTRgRM7WaC4RKVdzVsoeJuc",
  "categories": [
    "Engine rebuilding service"
  ],
  "cid": "16656034126258984745",
  "url": "https://www.google.com/maps/place/Workshop+E-60HM~HM+Racing/@-6.8272751,107.9174871,17z/data=!3m1!4b1!4m5!3m4!1s0x2e68d6ce446034cd:0xe7261eca56735729!8m2!3d-6.8272751!4d107.9196758?hl=en",
  "searchPageUrl": "https://www.google.com/maps/search/Bengkel+Sumedang/@-6.8592786,107.8861186,13z/data=!3m1!4b1?hl=en",
  "searchString": "Bengkel Sumedang",
  "scrapedAt": "2022-04-19T05:28:55.980Z",
  "reviewsCount": 2,
  "reviewsDistribution": {
    "oneStar": 1,
    "twoStar": 0,
    "threeStar": 0,
    "fourStar": 0,
    "fiveStar": 1
  },
  "reviews": [],
  "orderBy": []
},
{
  "title": "Bengkel gumilar putra mobil.",
  "subTitle": null,
  "price": null,
  "menu": null,
  "categoryName": "Car repair and maintenance",
  "address": null,
  "locatedIn": null,
  "plusCode": null,
  "website": "http://www.gumilarputra.com/",
  "phone": "+62 852-2245-7978",
  "temporarilyClosed": false,
  "location": {
    "lat": -2.44565,
    "lng": 117.8888
  },
  "permanentlyClosed": false,
  "totalScore": null,
  "isAdvertisement": false,
  "rank": 42,
  "placeId": "ChIJqbULxcrWaC4RiTVatXTH08k",
  "categories": [
    "Car repair and maintenance",
    "Service establishment"
  ],
  "cid": "14543186925782185353",
  "url": "https://www.google.com/maps/place/Bengkel+gumilar+putra+mobil./@-1.8785136,78.0556148,3z/data=!3m1!4b1!4m5!3m4!1s0x2e68d6cac50bb5a9:0xc9d3c774b55a3589!8m2!3d-2.44565!4d117.8888?hl=en",
  "searchPageUrl": "https://www.google.com/maps/search/Bengkel+Sumedang/@-6.8592786,107.8861186,13z/data=!3m1!4b1?hl=en",
  "searchString": "Bengkel Sumedang",
  "scrapedAt": "2022-04-19T05:29:06.135Z",
  "reviewsCount": 0,
  "reviewsDistribution": {
    "oneStar": 0,
    "twoStar": 0,
    "threeStar": 0,
    "fourStar": 0,
    "fiveStar": 0
  },
  "reviews": [],
  "orderBy": []
},
{
  "title": "Bengkel Motor SGRT03",
  "subTitle": null,
  "price": null,
  "menu": null,
  "categoryName": "Motorcycle repair shop",
  "address": "Jl. Kutamaya No.22, Padasuka, Kec. Sumedang Utara, Kabupaten Sumedang, Jawa Barat 45621, Indonesia",
  "locatedIn": null,
  "neighborhood": "Jl. Kutamaya No.22",
  "street": "Jl. Kutamaya No.22",
  "city": "Sumedang Regency",
  "postalCode": "45621",
  "state": "West Java",
  "countryCode": "ID",
  "plusCode": "5W24+JF Padasuka, Sumedang Regency, West Java, Indonesia",
  "website": null,
  "phone": "+62 823-1607-7077",
  "temporarilyClosed": false,
  "location": {
    "lat": -6.8484852,
    "lng": 107.9062447
  },
  "permanentlyClosed": false,
  "totalScore": 5,
  "isAdvertisement": false,
  "rank": 41,
  "placeId": "ChIJVVo-dbnRaC4Rsm-0Zki5BwE",
  "categories": [
    "Motorcycle repair shop"
  ],
  "cid": "74231639486787506",
  "url": "https://www.google.com/maps/place/Bengkel+Motor+SGRT03/@-6.8484852,107.904056,17z/data=!3m1!4b1!4m5!3m4!1s0x2e68d1b9753e5a55:0x107b94866b46fb2!8m2!3d-6.8484824!4d107.9062457?hl=en",
  "searchPageUrl": "https://www.google.com/maps/search/Bengkel+Sumedang/@-6.8592786,107.8861186,13z/data=!3m1!4b1?hl=en",
  "searchString": "Bengkel Sumedang",
  "scrapedAt": "2022-04-19T05:29:15.293Z",
  "reviewsCount": 1,
  "reviewsDistribution": {
    "oneStar": 0,
    "twoStar": 0,
    "threeStar": 0,
    "fourStar": 0,
    "fiveStar": 1
  },
  "reviews": [],
  "orderBy": []
},
{
  "title": "Service kaki kaki mobil",
  "subTitle": null,
  "price": null,
  "menu": null,
  "categoryName": "Auto repair shop",
  "address": "Jl. Prabu Gajah Agung, Kotakaler, Kec. Sumedang Utara, Kabupaten Sumedang, Jawa Barat 45621, Indonesia",
  "locatedIn": null,
  "neighborhood": "Jl. Prabu Gajah Agung",
  "street": "Jl. Prabu Gajah Agung",
  "city": "Sumedang Regency",
  "postalCode": "45621",
  "state": "West Java",
  "countryCode": "ID",
  "plusCode": "5W8H+9C Kotakaler, Sumedang Regency, West Java, Indonesia",
  "website": null,
  "phone": "+62 813-2101-2008",
  "temporarilyClosed": false,
  "location": {
    "lat": -6.8340402,
    "lng": 107.9285325
  },
  "permanentlyClosed": false,
  "totalScore": 5,
  "isAdvertisement": false,
  "rank": 40,
  "placeId": "ChIJqfhJTDXRaC4RGOzxprDhDi4",
  "categories": [
    "Auto repair shop"
  ],
  "cid": "3318838124250000408",
  "url": "https://www.google.com/maps/place/Service+kaki+kaki+mobil/@-6.8340402,107.9263438,17z/data=!3m1!4b1!4m5!3m4!1s0x2e68d1354c49f8a9:0x2e0ee1b0a6f1ec18!8m2!3d-6.834001!4d107.9285517?hl=en",
  "searchPageUrl": "https://www.google.com/maps/search/Bengkel+Sumedang/@-6.8465871,107.8416259,12z?hl=en",
  "searchString": "Bengkel Sumedang",
  "scrapedAt": "2022-04-19T05:29:24.279Z",
  "reviewsCount": 4,
  "reviewsDistribution": {
    "oneStar": 0,
    "twoStar": 0,
    "threeStar": 0,
    "fourStar": 0,
    "fiveStar": 4
  },
  "reviews": [],
  "orderBy": []
},
{
  "title": "Autozhav",
  "subTitle": null,
  "price": null,
  "menu": null,
  "categoryName": "Auto repair shop",
  "address": "Jl. Angkrek No.107, Situ, Kec. Sumedang Utara, Kabupaten Sumedang, Jawa Barat 45322, Indonesia",
  "locatedIn": null,
  "neighborhood": "Jl. Angkrek No.107",
  "street": "Jl. Angkrek No.107",
  "city": "Sumedang Regency",
  "postalCode": "45322",
  "state": "West Java",
  "countryCode": "ID",
  "plusCode": "5W8F+6M Situ, Sumedang Regency, West Java, Indonesia",
  "website": null,
  "phone": "+62 823-1523-2777",
  "temporarilyClosed": false,
  "location": {
    "lat": -6.8344951,
    "lng": 107.9241943
  },
  "permanentlyClosed": false,
  "totalScore": null,
  "isAdvertisement": false,
  "rank": 39,
  "placeId": "ChIJNzajrzTRaC4Rh7KdEPdkrNM",
  "categories": [
    "Auto repair shop"
  ],
  "cid": "15252677050295497351",
  "url": "https://www.google.com/maps/place/Autozhav/@-6.8344951,107.9220056,17z/data=!3m1!4b1!4m5!3m4!1s0x2e68d134afa33637:0xd3ac64f7109db287!8m2!3d-6.8344942!4d107.924196?hl=en",
  "searchPageUrl": "https://www.google.com/maps/search/Bengkel+Sumedang/@-6.8465871,107.8416259,12z?hl=en",
  "searchString": "Bengkel Sumedang",
  "scrapedAt": "2022-04-19T05:29:32.468Z",
  "reviewsCount": 0,
  "reviewsDistribution": {
    "oneStar": 0,
    "twoStar": 0,
    "threeStar": 0,
    "fourStar": 0,
    "fiveStar": 0
  },
  "reviews": [],
  "orderBy": []
},
{
  "title": "Bengkel Motor Tradisional \"NANA\"",
  "subTitle": null,
  "price": null,
  "menu": null,
  "categoryName": "Motorcycle repair shop",
  "address": "Nangerang, Situ, Kec. Sumedang Utara, Kabupaten Sumedang, Jawa Barat 45621, Indonesia",
  "locatedIn": null,
  "neighborhood": "Nangerang",
  "street": "Nangerang",
  "city": "Sumedang Regency",
  "postalCode": "45621",
  "state": "West Java",
  "countryCode": "ID",
  "plusCode": "5W99+XC Situ, Sumedang Regency, West Java, Indonesia",
  "website": null,
  "phone": "+62 853-2254-6780",
  "temporarilyClosed": false,
  "location": {
    "lat": -6.830108,
    "lng": 107.9185594
  },
  "permanentlyClosed": false,
  "totalScore": 5,
  "isAdvertisement": false,
  "rank": 38,
  "placeId": "ChIJeWvjItHXaC4RhOaC7aGl2jU",
  "categories": [
    "Motorcycle repair shop"
  ],
  "cid": "3880596143826200196",
  "url": "https://www.google.com/maps/place/Bengkel+Motor+Tradisional+%22NANA%22/@-6.830108,107.9163707,17z/data=!3m1!4b1!4m5!3m4!1s0x2e68d7d122e36b79:0x35daa5a1ed82e684!8m2!3d-6.8301303!4d107.9185549?hl=en",
  "searchPageUrl": "https://www.google.com/maps/search/Bengkel+Sumedang/@-6.8465871,107.8416259,12z?hl=en",
  "searchString": "Bengkel Sumedang",
  "scrapedAt": "2022-04-19T05:29:40.711Z",
  "reviewsCount": 1,
  "reviewsDistribution": {
    "oneStar": 0,
    "twoStar": 0,
    "threeStar": 0,
    "fourStar": 0,
    "fiveStar": 1
  },
  "reviews": [],
  "orderBy": []
},
{
  "title": "Bengkel Mobil.AC,Radiator,Injection,Matic,Tuneup,Upgrade Performance,Dll",
  "subTitle": null,
  "price": null,
  "menu": null,
  "categoryName": "Auto repair shop",
  "address": "Unnamed Road, Situ, Kec. Sumedang Utara, Kabupaten Sumedang, Jawa Barat 45621, Indonesia",
  "locatedIn": null,
  "neighborhood": "Unnamed Road",
  "street": "Unnamed Road",
  "city": "Sumedang Regency",
  "postalCode": "45621",
  "state": "West Java",
  "countryCode": "ID",
  "plusCode": "5W58+2C Situ, Sumedang Regency, West Java, Indonesia",
  "website": null,
  "phone": "+62 812-2499-2956",
  "temporarilyClosed": false,
  "location": {
    "lat": -6.8424888,
    "lng": 107.9161139
  },
  "permanentlyClosed": false,
  "totalScore": 4.8,
  "isAdvertisement": false,
  "rank": 37,
  "placeId": "ChIJE63GhzLRaC4RkEhNR3JxXGg",
  "categories": [
    "Auto repair shop"
  ],
  "cid": "7520010213438343312",
  "url": "https://www.google.com/maps/place/Bengkel+Mobil.AC,Radiator,Injection,Matic,Tuneup,Upgrade+Performance,Dll/@-6.8424888,107.9139252,17z/data=!3m1!4b1!4m5!3m4!1s0x2e68d13287c6ad13:0x685c7172474d4890!8m2!3d-6.8424974!4d107.9161425?hl=en",
  "searchPageUrl": "https://www.google.com/maps/search/Bengkel+Sumedang/@-6.8465871,107.8416259,12z?hl=en",
  "searchString": "Bengkel Sumedang",
  "scrapedAt": "2022-04-19T05:29:49.572Z",
  "reviewsCount": 10,
  "reviewsDistribution": {
    "oneStar": 0,
    "twoStar": 0,
    "threeStar": 0,
    "fourStar": 2,
    "fiveStar": 8
  },
  "reviews": [],
  "orderBy": []
},
{
  "title": "TOKO KURNIA MOTOR",
  "subTitle": null,
  "price": null,
  "menu": null,
  "categoryName": "Auto repair shop",
  "address": "Jl. Prabu Gajah Agung No.25, RW.06, Situ, Kec. Sumedang Utara, Kabupaten Sumedang, Jawa Barat 45621, Indonesia",
  "locatedIn": null,
  "neighborhood": "Jl. Prabu Gajah Agung No.25, RW.06",
  "street": "Jl. Prabu Gajah Agung No.25, RW.06",
  "city": "Sumedang Regency",
  "postalCode": "45621",
  "state": "West Java",
  "countryCode": "ID",
  "plusCode": "5WC9+JM Situ, Sumedang Regency, West Java, Indonesia",
  "website": null,
  "phone": "+62 823-1847-4426",
  "temporarilyClosed": false,
  "location": {
    "lat": -6.828442,
    "lng": 107.9192067
  },
  "permanentlyClosed": false,
  "totalScore": 4.8,
  "isAdvertisement": false,
  "rank": 36,
  "placeId": "ChIJhUuu2iXXaC4RlP3AVG7g-Yo",
  "categories": [
    "Auto repair shop"
  ],
  "cid": "10014282010907966868",
  "url": "https://www.google.com/maps/place/TOKO+KURNIA+MOTOR/@-6.828442,107.917018,17z/data=!3m1!4b1!4m5!3m4!1s0x2e68d725daae4b85:0x8af9e06e54c0fd94!8m2!3d-6.828446!4d107.9192153?hl=en",
  "searchPageUrl": "https://www.google.com/maps/search/Bengkel+Sumedang/@-6.8465871,107.8416259,12z?hl=en",
  "searchString": "Bengkel Sumedang",
  "scrapedAt": "2022-04-19T05:29:58.202Z",
  "reviewsCount": 5,
  "reviewsDistribution": {
    "oneStar": 0,
    "twoStar": 0,
    "threeStar": 0,
    "fourStar": 1,
    "fiveStar": 4
  },
  "reviews": [],
  "orderBy": []
},
{
  "title": "Bengkel mobil,power steering",
  "subTitle": null,
  "price": null,
  "menu": null,
  "categoryName": "Car repair and maintenance",
  "address": "Jl. P. Sugih No.27, Kotakulon, Kec. Sumedang Sel., Kabupaten Sumedang, Jawa Barat 45311, Indonesia",
  "locatedIn": null,
  "neighborhood": "Jl. P. Sugih No.27",
  "street": "Jl. P. Sugih No.27",
  "city": "Sumedang Regency",
  "postalCode": "45311",
  "state": "West Java",
  "countryCode": "ID",
  "plusCode": "5W27+MR Kotakulon, Sumedang Regency, West Java, Indonesia",
  "website": null,
  "phone": "+62 831-4490-0569",
  "temporarilyClosed": false,
  "location": {
    "lat": -6.8482735,
    "lng": 107.9145746
  },
  "permanentlyClosed": false,
  "totalScore": 4.9,
  "isAdvertisement": false,
  "rank": 35,
  "placeId": "ChIJDaC68_7RaC4R__g6QQW9arI",
  "categories": [
    "Car repair and maintenance"
  ],
  "cid": "12856295916549372159",
  "url": "https://www.google.com/maps/place/Bengkel+mobil,power+steering/@-6.8482735,107.9123859,17z/data=!3m1!4b1!4m5!3m4!1s0x2e68d1fef3baa00d:0xb26abd05413af8ff!8m2!3d-6.8482667!4d107.9145429?hl=en",
  "searchPageUrl": "https://www.google.com/maps/search/Bengkel+Sumedang/@-6.8465871,107.8416259,12z?hl=en",
  "searchString": "Bengkel Sumedang",
  "scrapedAt": "2022-04-19T05:30:07.375Z",
  "reviewsCount": 8,
  "reviewsDistribution": {
    "oneStar": 0,
    "twoStar": 0,
    "threeStar": 0,
    "fourStar": 1,
    "fiveStar": 7
  },
  "reviews": [],
  "orderBy": []
},
{
  "title": "Bengkel Kaki Kaki & Shockbreker Mobil Kencana Mekar 1",
  "subTitle": null,
  "price": null,
  "menu": null,
  "categoryName": "Car repair and maintenance",
  "address": "jln prabu gajah agung, Bojong Ciakar, Jatimulya, Kec. Sumedang Utara, Kabupaten Sumedang, Jawa Barat 45621, Indonesia",
  "locatedIn": null,
  "neighborhood": "jln prabu gajah agung, Bojong Ciakar",
  "street": "jln prabu gajah agung, Bojong Ciakar",
  "city": "Sumedang Regency",
  "postalCode": "45621",
  "state": "West Java",
  "countryCode": "ID",
  "plusCode": "5WFC+83 Jatimulya, Sumedang Regency, West Java, Indonesia",
  "website": null,
  "phone": "+62 852-2181-5182",
  "temporarilyClosed": false,
  "location": {
    "lat": -6.8266675,
    "lng": 107.9201901
  },
  "permanentlyClosed": false,
  "totalScore": 4.7,
  "isAdvertisement": false,
  "rank": 34,
  "placeId": "ChIJOUx1VM7WaC4R4FNkcR0emMM",
  "categories": [
    "Car repair and maintenance"
  ],
  "cid": "14094048145661252576",
  "url": "https://www.google.com/maps/place/Bengkel+Kaki+Kaki+%26+Shockbreker+Mobil+Kencana+Mekar+1/@-6.8266675,107.9180014,17z/data=!3m1!4b1!4m5!3m4!1s0x2e68d6ce54754c39:0xc3981e1d716453e0!8m2!3d-6.8266703!4d107.9201947?hl=en",
  "searchPageUrl": "https://www.google.com/maps/search/Bengkel+Sumedang/@-6.8465871,107.8416259,12z?hl=en",
  "searchString": "Bengkel Sumedang",
  "scrapedAt": "2022-04-19T05:30:16.327Z",
  "reviewsCount": 30,
  "reviewsDistribution": {
    "oneStar": 0,
    "twoStar": 0,
    "threeStar": 2,
    "fourStar": 4,
    "fiveStar": 24
  },
  "reviews": [],
  "orderBy": []
},
{
  "title": "Bengkel Indra",
  "subTitle": null,
  "price": null,
  "menu": null,
  "categoryName": "Motorcycle repair shop",
  "address": "Jl. Sebelas April No.82, Kotakaler, Kec. Sumedang Utara, Kabupaten Sumedang, Jawa Barat 45621, Indonesia",
  "locatedIn": null,
  "neighborhood": "Jl. Sebelas April No.82",
  "street": "Jl. Sebelas April No.82",
  "city": "Sumedang Regency",
  "postalCode": "45621",
  "state": "West Java",
  "countryCode": "ID",
  "plusCode": "5W2J+J9 Kotakaler, Sumedang Regency, West Java, Indonesia",
  "website": null,
  "phone": null,
  "temporarilyClosed": false,
  "location": {
    "lat": -6.8484601,
    "lng": 107.9309381
  },
  "permanentlyClosed": false,
  "totalScore": 4.6,
  "isAdvertisement": false,
  "rank": 32,
  "placeId": "ChIJwaX2R0fRaC4RZsoRmZkNWb8",
  "categories": [
    "Motorcycle repair shop"
  ],
  "cid": "13788066687520721510",
  "url": "https://www.google.com/maps/place/Bengkel+Indra/@-6.8484601,107.9287494,17z/data=!3m1!4b1!4m5!3m4!1s0x2e68d14747f6a5c1:0xbf590d999911ca66!8m2!3d-6.8484602!4d107.9309381?hl=en",
  "searchPageUrl": "https://www.google.com/maps/search/Bengkel+Sumedang/@-6.8465871,107.8416259,12z?hl=en",
  "searchString": "Bengkel Sumedang",
  "scrapedAt": "2022-04-19T05:30:25.284Z",
  "reviewsCount": 5,
  "reviewsDistribution": {
    "oneStar": 0,
    "twoStar": 0,
    "threeStar": 1,
    "fourStar": 0,
    "fiveStar": 4
  },
  "reviews": [],
  "orderBy": []
},
{
  "title": "BENERIN di Sumedang",
  "subTitle": null,
  "price": null,
  "menu": null,
  "categoryName": "Motorcycle repair shop",
  "address": "Jl. Mayor Abdurahman No.34A, Kotakaler, Kec. Sumedang Utara, Kabupaten Sumedang, Jawa Barat 45621, Indonesia",
  "locatedIn": null,
  "neighborhood": "Jl. Mayor Abdurahman No.34A",
  "street": "Jl. Mayor Abdurahman No.34A",
  "city": "Sumedang Regency",
  "postalCode": "45621",
  "state": "West Java",
  "countryCode": "ID",
  "plusCode": "5W4F+2W Kotakaler, Sumedang Regency, West Java, Indonesia",
  "website": "http://benerinmotor.com/",
  "phone": "+62 822-1445-4626",
  "temporarilyClosed": false,
  "location": {
    "lat": -6.8449353,
    "lng": 107.9248592
  },
  "permanentlyClosed": false,
  "totalScore": null,
  "isAdvertisement": false,
  "rank": 31,
  "placeId": "ChIJT-DuIrrRaC4RRHoQnt-Yb0c",
  "categories": [
    "Motorcycle repair shop"
  ],
  "cid": "5147500985304775236",
  "url": "https://www.google.com/maps/place/BENERIN+di+Sumedang/@-6.8449353,107.9226705,17z/data=!3m1!4b1!4m5!3m4!1s0x2e68d1ba22eee04f:0x476f98df9e107a44!8m2!3d-6.8449326!4d107.9248517?hl=en",
  "searchPageUrl": "https://www.google.com/maps/search/Bengkel+Sumedang/@-6.8465871,107.8416259,12z?hl=en",
  "searchString": "Bengkel Sumedang",
  "scrapedAt": "2022-04-19T05:30:33.779Z",
  "reviewsCount": 0,
  "reviewsDistribution": {
    "oneStar": 0,
    "twoStar": 0,
    "threeStar": 0,
    "fourStar": 0,
    "fiveStar": 0
  },
  "reviews": [],
  "orderBy": []
},
{
  "title": "MIZZLE tire @SANJAYA MOTOR",
  "subTitle": null,
  "price": null,
  "menu": null,
  "categoryName": "Motorcycle repair shop",
  "address": "Jl. Mayor Abdurahman No.211, Kotakaler, Kec. Sumedang Utara, Kabupaten Sumedang, Jawa Barat 45621, Indonesia",
  "locatedIn": null,
  "neighborhood": "Jl. Mayor Abdurahman No.211",
  "street": "Jl. Mayor Abdurahman No.211",
  "city": "Sumedang Regency",
  "postalCode": "45621",
  "state": "West Java",
  "countryCode": "ID",
  "plusCode": "5W7H+44 Kotakaler, Sumedang Regency, West Java, Indonesia",
  "website": null,
  "phone": null,
  "temporarilyClosed": false,
  "location": {
    "lat": -6.8372251,
    "lng": 107.9278406
  },
  "permanentlyClosed": false,
  "totalScore": 4.5,
  "isAdvertisement": false,
  "rank": 30,
  "placeId": "ChIJxTuGwjXRaC4RjVCAAqrUEkU",
  "categories": [
    "Motorcycle repair shop",
    "Repairs"
  ],
  "cid": "4977274364849311885",
  "url": "https://www.google.com/maps/place/MIZZLE+tire+@SANJAYA+MOTOR/@-6.8372251,107.9256519,17z/data=!3m1!4b1!4m5!3m4!1s0x2e68d135c2863bc5:0x4512d4aa0280508d!8m2!3d-6.837219!4d107.9278338?hl=en",
  "searchPageUrl": "https://www.google.com/maps/search/Bengkel+Sumedang/@-6.8465871,107.8416259,12z?hl=en",
  "searchString": "Bengkel Sumedang",
  "scrapedAt": "2022-04-19T05:30:43.655Z",
  "reviewsCount": 98,
  "reviewsDistribution": {
    "oneStar": 0,
    "twoStar": 1,
    "threeStar": 13,
    "fourStar": 21,
    "fiveStar": 63
  },
  "reviews": [],
  "orderBy": []
},
{
  "title": "Dic's Customs (Bengkel Modifikasi)",
  "subTitle": null,
  "price": null,
  "menu": null,
  "categoryName": "Auto repair shop",
  "address": "4W8M+CW2, Baginda, Sumedang Selatan, Sumedang Regency, West Java 45311, Indonesia             4W8M+CW2, Baginda, Kec. Sumedang Sel., Kabupaten Sumedang, Jawa Barat 45311",
  "locatedIn": null,
  "neighborhood": "4W8M+CW2",
  "street": "4W8M+CW2",
  "city": "Sumedang Regency",
  "postalCode": "45311",
  "state": "West Java",
  "countryCode": "ID",
  "plusCode": null,
  "website": null,
  "phone": null,
  "temporarilyClosed": false,
  "location": {
    "lat": -6.8839772,
    "lng": 107.9347713
  },
  "permanentlyClosed": false,
  "totalScore": 5,
  "isAdvertisement": false,
  "rank": 29,
  "placeId": "ChIJh6n8y7TRaC4RKxjpegMN-Ew",
  "categories": [
    "Auto repair shop"
  ],
  "cid": "5546197249704925227",
  "url": "https://www.google.com/maps/place/Dic's+Customs+(Bengkel+Modifikasi)/@-6.8839772,107.9325826,17z/data=!3m1!4b1!4m5!3m4!1s0x2e68d1b4cbfca987:0x4cf80d037ae9182b!8m2!3d-6.883985!4d107.9348132?hl=en",
  "searchPageUrl": "https://www.google.com/maps/search/Bengkel+Sumedang/@-6.8465871,107.8416259,12z?hl=en",
  "searchString": "Bengkel Sumedang",
  "scrapedAt": "2022-04-19T05:30:52.384Z",
  "reviewsCount": 2,
  "reviewsDistribution": {
    "oneStar": 0,
    "twoStar": 0,
    "threeStar": 0,
    "fourStar": 0,
    "fiveStar": 2
  },
  "reviews": [],
  "orderBy": []
},
{
  "title": "Yank Motor Sport",
  "subTitle": null,
  "price": null,
  "menu": null,
  "categoryName": "Car repair and maintenance",
  "address": "Jl. Kutamaya No.21, Kotakulon, Kec. Sumedang Sel., Kabupaten Sumedang, Jawa Barat 45311, Indonesia",
  "locatedIn": null,
  "neighborhood": "Jl. Kutamaya No.21",
  "street": "Jl. Kutamaya No.21",
  "city": "Sumedang Regency",
  "postalCode": "45311",
  "state": "West Java",
  "countryCode": "ID",
  "plusCode": "5W27+7Q Kotakulon, Sumedang Regency, West Java, Indonesia",
  "website": null,
  "phone": null,
  "temporarilyClosed": false,
  "location": {
    "lat": -6.8492875,
    "lng": 107.9144786
  },
  "permanentlyClosed": false,
  "totalScore": 4.5,
  "isAdvertisement": false,
  "rank": 28,
  "placeId": "ChIJPVI2fCTRaC4Ri44ck6PZZeA",
  "categories": [
    "Car repair and maintenance"
  ],
  "cid": "16169569333714652811",
  "url": "https://www.google.com/maps/place/Yank+Motor+Sport/@-6.8492875,107.9122899,17z/data=!3m1!4b1!4m5!3m4!1s0x2e68d1247c36523d:0xe065d9a3931c8e8b!8m2!3d-6.8494117!4d107.9144546?hl=en",
  "searchPageUrl": "https://www.google.com/maps/search/Bengkel+Sumedang/@-6.8465871,107.8416259,12z?hl=en",
  "searchString": "Bengkel Sumedang",
  "scrapedAt": "2022-04-19T05:31:01.242Z",
  "reviewsCount": 4,
  "reviewsDistribution": {
    "oneStar": 0,
    "twoStar": 0,
    "threeStar": 1,
    "fourStar": 0,
    "fiveStar": 3
  },
  "reviews": [],
  "orderBy": []
},
{
  "title": "Toko Garuda Motor",
  "subTitle": null,
  "price": null,
  "menu": null,
  "categoryName": "Oil change service",
  "address": "Jl. Prabu Geusan Ulun No.202, Regol Wetan, Kec. Sumedang Sel., Kabupaten Sumedang, Jawa Barat 45311, Indonesia",
  "locatedIn": null,
  "neighborhood": "Jl. Prabu Geusan Ulun No.202",
  "street": "Jl. Prabu Geusan Ulun No.202",
  "city": "Sumedang Regency",
  "postalCode": "45311",
  "state": "West Java",
  "countryCode": "ID",
  "plusCode": "5W2F+JG Regol Wetan, Sumedang Regency, West Java, Indonesia",
  "website": null,
  "phone": "+62 811-208-552",
  "temporarilyClosed": false,
  "location": {
    "lat": -6.8484826,
    "lng": 107.9238027
  },
  "permanentlyClosed": false,
  "totalScore": 4.8,
  "isAdvertisement": false,
  "rank": 27,
  "placeId": "ChIJgS0bVjnRaC4Rg2TyKYhA47c",
  "categories": [
    "Oil change service"
  ],
  "cid": "13250505482217612419",
  "url": "https://www.google.com/maps/place/Toko+Garuda+Motor/@-6.8484826,107.921614,17z/data=!3m1!4b1!4m5!3m4!1s0x2e68d139561b2d81:0xb7e3408829f26483!8m2!3d-6.8484597!4d107.9237164?hl=en",
  "searchPageUrl": "https://www.google.com/maps/search/Bengkel+Sumedang/@-6.8465871,107.8416259,12z?hl=en",
  "searchString": "Bengkel Sumedang",
  "scrapedAt": "2022-04-19T05:31:10.005Z",
  "reviewsCount": 15,
  "reviewsDistribution": {
    "oneStar": 0,
    "twoStar": 0,
    "threeStar": 1,
    "fourStar": 1,
    "fiveStar": 13
  },
  "reviews": [],
  "orderBy": []
},
{
  "title": "Bengkel NM",
  "subTitle": null,
  "price": null,
  "menu": null,
  "categoryName": "Car repair and maintenance",
  "address": "Jl. Prabu Gajah Agung No.16, Situ, Kec. Sumedang Utara, Kabupaten Sumedang, Jawa Barat 45323, Indonesia",
  "locatedIn": null,
  "neighborhood": "Jl. Prabu Gajah Agung No.16",
  "street": "Jl. Prabu Gajah Agung No.16",
  "city": "Sumedang Regency",
  "postalCode": "45323",
  "state": "West Java",
  "countryCode": "ID",
  "plusCode": "5WFC+43 Situ, Sumedang Regency, West Java, Indonesia",
  "website": "https://bengkel-nm.business.site/?utm_source=gmb&utm_medium=referral",
  "phone": "+62 812-9366-9001",
  "temporarilyClosed": false,
  "location": {
    "lat": -6.8271316,
    "lng": 107.920153
  },
  "permanentlyClosed": false,
  "totalScore": null,
  "isAdvertisement": false,
  "rank": 26,
  "placeId": "ChIJtbgPrsfXaC4RTvLFKE_aKb4",
  "categories": [
    "Car repair and maintenance"
  ],
  "cid": "13702723374772777550",
  "url": "https://www.google.com/maps/place/Bengkel+NM/@-6.8271316,107.9179643,17z/data=!3m1!4b1!4m5!3m4!1s0x2e68d7c7ae0fb8b5:0xbe29da4f28c5f24e!8m2!3d-6.8271092!4d107.9201153?hl=en",
  "searchPageUrl": "https://www.google.com/maps/search/Bengkel+Sumedang/@-6.8465871,107.8416259,12z?hl=en",
  "searchString": "Bengkel Sumedang",
  "scrapedAt": "2022-04-19T05:33:19.396Z",
  "reviewsCount": 0,
  "reviewsDistribution": {
    "oneStar": 0,
    "twoStar": 0,
    "threeStar": 0,
    "fourStar": 0,
    "fiveStar": 0
  },
  "reviews": [],
  "orderBy": []
},
{
  "title": "Bengkel Mobil",
  "subTitle": null,
  "price": null,
  "menu": null,
  "categoryName": "Auto repair shop",
  "address": "5W83+X97, Margamukti, Sumedang Utara, Sumedang Regency, West Java 45621, Indonesia             5W83+X97, Margamukti, Kec. Sumedang Utara, Kabupaten Sumedang, Jawa Barat 45621",
  "locatedIn": null,
  "neighborhood": "5W83+X97",
  "street": "5W83+X97",
  "city": "Sumedang Regency",
  "postalCode": "45621",
  "state": "West Java",
  "countryCode": "ID",
  "plusCode": null,
  "website": null,
  "phone": "+62 821-1600-5777",
  "temporarilyClosed": false,
  "location": {
    "lat": -6.8325899,
    "lng": 107.9034255
  },
  "permanentlyClosed": false,
  "totalScore": null,
  "isAdvertisement": false,
  "rank": 25,
  "placeId": "ChIJwcRmBxPXaC4R42JPG_kQryE",
  "categories": [
    "Auto repair shop"
  ],
  "cid": "2427177386267075299",
  "url": "https://www.google.com/maps/place/Bengkel+Mobil/@-6.8325899,107.9012368,17z/data=!3m1!4b1!4m5!3m4!1s0x2e68d7130766c4c1:0x21af10f91b4f62e3!8m2!3d-6.8325525!4d107.9034328?hl=en",
  "searchPageUrl": "https://www.google.com/maps/search/Bengkel+Sumedang/@-6.8465871,107.8416259,12z?hl=en",
  "searchString": "Bengkel Sumedang",
  "scrapedAt": "2022-04-19T05:33:27.196Z",
  "reviewsCount": 0,
  "reviewsDistribution": {
    "oneStar": 0,
    "twoStar": 0,
    "threeStar": 0,
    "fourStar": 0,
    "fiveStar": 0
  },
  "reviews": [],
  "orderBy": []
},
{
  "title": "Bengkel Cahaya Motor",
  "subTitle": null,
  "price": null,
  "menu": null,
  "categoryName": "Car repair and maintenance",
  "address": "Rajawali, Rancamulya, Kec. Sumedang Utara, Kabupaten Sumedang, Jawa Barat 45621, Indonesia",
  "locatedIn": null,
  "neighborhood": "Rajawali",
  "street": "Rajawali",
  "city": "Sumedang Regency",
  "postalCode": "45621",
  "state": "West Java",
  "countryCode": "ID",
  "plusCode": "5W4Q+PG Rancamulya, Sumedang Regency, West Java, Indonesia",
  "website": null,
  "phone": null,
  "temporarilyClosed": false,
  "location": {
    "lat": -6.8431319,
    "lng": 107.9388508
  },
  "permanentlyClosed": false,
  "totalScore": 4.8,
  "isAdvertisement": false,
  "rank": 24,
  "placeId": "ChIJT_TrhE_RaC4RcYf2raEF4F4",
  "categories": [
    "Car repair and maintenance"
  ],
  "cid": "6836470426314901361",
  "url": "https://www.google.com/maps/place/Bengkel+Cahaya+Motor/@-6.8431319,107.9366621,17z/data=!3m1!4b1!4m5!3m4!1s0x2e68d14f84ebf44f:0x5ee005a1adf68771!8m2!3d-6.8431728!4d107.938832?hl=en",
  "searchPageUrl": "https://www.google.com/maps/search/Bengkel+Sumedang/@-6.8465871,107.8416259,12z?hl=en",
  "searchString": "Bengkel Sumedang",
  "scrapedAt": "2022-04-19T05:33:36.337Z",
  "reviewsCount": 6,
  "reviewsDistribution": {
    "oneStar": 0,
    "twoStar": 0,
    "threeStar": 0,
    "fourStar": 1,
    "fiveStar": 5
  },
  "reviews": [],
  "orderBy": []
},
{
  "title": "BENGKEL PUTRA ANNUR JAYA",
  "subTitle": null,
  "price": null,
  "menu": null,
  "categoryName": "Car repair and maintenance",
  "address": "Jl. Prabu Gajah Agung No.20, Situ, Kec. Sumedang Utara, Kabupaten Sumedang, Jawa Barat 45621, Indonesia",
  "locatedIn": null,
  "neighborhood": "Jl. Prabu Gajah Agung No.20",
  "street": "Jl. Prabu Gajah Agung No.20",
  "city": "Sumedang Regency",
  "postalCode": "45621",
  "state": "West Java",
  "countryCode": "ID",
  "plusCode": "5W9G+JG Situ, Sumedang Regency, West Java, Indonesia",
  "website": null,
  "phone": "+62 852-2003-5627",
  "temporarilyClosed": false,
  "location": {
    "lat": -6.8309185,
    "lng": 107.9262653
  },
  "permanentlyClosed": false,
  "totalScore": 3.8,
  "isAdvertisement": false,
  "rank": 23,
  "placeId": "ChIJZwFCrMvWaC4R5Md-stpKgWQ",
  "categories": [
    "Car repair and maintenance"
  ],
  "cid": "7242151978946447332",
  "url": "https://www.google.com/maps/place/BENGKEL+PUTRA+ANNUR+JAYA/@-6.8309185,107.9240766,17z/data=!3m1!4b1!4m5!3m4!1s0x2e68d6cbac420167:0x64814adab27ec7e4!8m2!3d-6.8309502!4d107.9262452?hl=en",
  "searchPageUrl": "https://www.google.com/maps/search/Bengkel+Sumedang/@-6.8465871,107.8416259,12z?hl=en",
  "searchString": "Bengkel Sumedang",
  "scrapedAt": "2022-04-19T05:33:44.714Z",
  "reviewsCount": 5,
  "reviewsDistribution": {
    "oneStar": 1,
    "twoStar": 0,
    "threeStar": 1,
    "fourStar": 0,
    "fiveStar": 3
  },
  "reviews": [],
  "orderBy": []
},
{
  "title": "KX SPRAY PAINT - Bengkel Iwan jaya Motor",
  "subTitle": null,
  "price": null,
  "menu": null,
  "categoryName": "Motorcycle repair shop",
  "address": "Jl. Sebelas April, Rancamulya, Kec. Sumedang Utara, Kabupaten Sumedang, Jawa Barat 45621, Indonesia",
  "locatedIn": null,
  "neighborhood": "Jl. Sebelas April",
  "street": "Jl. Sebelas April",
  "city": "Sumedang Regency",
  "postalCode": "45621",
  "state": "West Java",
  "countryCode": "ID",
  "plusCode": "5W2M+4R Rancamulya, Sumedang Regency, West Java, Indonesia",
  "website": null,
  "phone": "+62 852-2149-1906",
  "temporarilyClosed": false,
  "location": {
    "lat": -6.8496923,
    "lng": 107.9345048
  },
  "permanentlyClosed": false,
  "totalScore": 4.7,
  "isAdvertisement": false,
  "rank": 22,
  "placeId": "ChIJ75-dRUHRaC4RyCSQH2mLWb0",
  "categories": [
    "Motorcycle repair shop"
  ],
  "cid": "13644089829712995528",
  "url": "https://www.google.com/maps/place/KX+SPRAY+PAINT+-+Bengkel+Iwan+jaya+Motor/@-6.8496923,107.9323161,17z/data=!3m1!4b1!4m5!3m4!1s0x2e68d141459d9fef:0xbd598b691f9024c8!8m2!3d-6.849682!4d107.9344983?hl=en",
  "searchPageUrl": "https://www.google.com/maps/search/Bengkel+Sumedang/@-6.8465871,107.8416259,12z?hl=en",
  "searchString": "Bengkel Sumedang",
  "scrapedAt": "2022-04-19T05:33:53.899Z",
  "reviewsCount": 13,
  "reviewsDistribution": {
    "oneStar": 0,
    "twoStar": 0,
    "threeStar": 1,
    "fourStar": 2,
    "fiveStar": 10
  },
  "reviews": [],
  "orderBy": []
},
{
  "title": "Bengkel Mobil Pa Jajang",
  "subTitle": null,
  "price": null,
  "menu": null,
  "categoryName": "Auto repair shop",
  "address": "Peusar, Baginda, Kec. Sumedang Sel., Kabupaten Sumedang, Jawa Barat 45311, Indonesia",
  "locatedIn": null,
  "neighborhood": "Peusar",
  "street": "Peusar",
  "city": "Sumedang Regency",
  "postalCode": "45311",
  "state": "West Java",
  "countryCode": "ID",
  "plusCode": "4W5M+6X Baginda, Sumedang Regency, West Java, Indonesia",
  "website": null,
  "phone": null,
  "temporarilyClosed": false,
  "location": {
    "lat": -6.8918922,
    "lng": 107.9348957
  },
  "permanentlyClosed": false,
  "totalScore": 3,
  "isAdvertisement": false,
  "rank": 21,
  "placeId": "ChIJMVVWeZTRaC4RC3xW3GkwOAc",
  "categories": [
    "Auto repair shop"
  ],
  "cid": "520218988187646987",
  "url": "https://www.google.com/maps/place/Bengkel+Mobil+Pa+Jajang/@-6.8918922,107.932707,17z/data=!3m1!4b1!4m5!3m4!1s0x2e68d19479565531:0x7383069dc567c0b!8m2!3d-6.8918922!4d107.9348957?hl=en",
  "searchPageUrl": "https://www.google.com/maps/search/Bengkel+Sumedang/@-6.8465871,107.8416259,12z?hl=en",
  "searchString": "Bengkel Sumedang",
  "scrapedAt": "2022-04-19T05:34:01.543Z",
  "reviewsCount": 1,
  "reviewsDistribution": {
    "oneStar": 0,
    "twoStar": 0,
    "threeStar": 1,
    "fourStar": 0,
    "fiveStar": 0
  },
  "reviews": [],
  "orderBy": []
},
{
  "title": "Bengkel Dinamo",
  "subTitle": null,
  "price": null,
  "menu": null,
  "categoryName": "Auto repair shop",
  "address": "5W3C+243, Kotakulon, Sumedang Selatan, Sumedang Regency, West Java 45311, Indonesia             5W3C+243, Kotakulon, Kec. Sumedang Sel., Kabupaten Sumedang, Jawa Barat 45311",
  "locatedIn": null,
  "neighborhood": "5W3C+243",
  "street": "5W3C+243",
  "city": "Sumedang Regency",
  "postalCode": "45311",
  "state": "West Java",
  "countryCode": "ID",
  "plusCode": null,
  "website": null,
  "phone": "+62 853-2112-7399",
  "temporarilyClosed": false,
  "location": {
    "lat": -6.8474815,
    "lng": 107.9203021
  },
  "permanentlyClosed": false,
  "totalScore": null,
  "isAdvertisement": false,
  "rank": 20,
  "placeId": "ChIJzY8_1R7RaC4R1hjKPQxeKUk",
  "categories": [
    "Auto repair shop"
  ],
  "cid": "5271848245483149526",
  "url": "https://www.google.com/maps/place/Bengkel+Dinamo/@-6.8474815,107.9181134,17z/data=!3m1!4b1!4m5!3m4!1s0x2e68d11ed53f8fcd:0x49295e0c3dca18d6!8m2!3d-6.8475024!4d107.9202987?hl=en",
  "searchPageUrl": "https://www.google.com/maps/search/Bengkel+Sumedang/@37.0625,-95.677068,4z?hl=en",
  "searchString": "Bengkel Sumedang",
  "scrapedAt": "2022-04-19T05:34:09.288Z",
  "reviewsCount": 0,
  "reviewsDistribution": {
    "oneStar": 0,
    "twoStar": 0,
    "threeStar": 0,
    "fourStar": 0,
    "fiveStar": 0
  },
  "reviews": [],
  "orderBy": []
},
{
  "title": "Bengkel Mobil Family",
  "subTitle": null,
  "price": null,
  "menu": null,
  "categoryName": "Auto repair shop",
  "address": "Jl. Kebonkol No.28, Regol Wetan, Kec. Sumedang Sel., Kabupaten Sumedang, Jawa Barat 45311, Indonesia",
  "locatedIn": null,
  "neighborhood": "Jl. Kebonkol No.28",
  "street": "Jl. Kebonkol No.28",
  "city": "Sumedang Regency",
  "postalCode": "45311",
  "state": "West Java",
  "countryCode": "ID",
  "plusCode": "4WVF+QQ Regol Wetan, Sumedang Regency, West Java, Indonesia",
  "website": null,
  "phone": null,
  "temporarilyClosed": false,
  "location": {
    "lat": -6.8555259,
    "lng": 107.9244646
  },
  "permanentlyClosed": false,
  "totalScore": 4,
  "isAdvertisement": false,
  "rank": 19,
  "placeId": "ChIJQwdPnL7RaC4RHckBMcGjl-I",
  "categories": [
    "Auto repair shop"
  ],
  "cid": "16327699024201238813",
  "url": "https://www.google.com/maps/place/Bengkel+Mobil+Family/@-6.8555259,107.9222759,17z/data=!3m1!4b1!4m5!3m4!1s0x2e68d1be9c4f0743:0xe297a3c13101c91d!8m2!3d-6.8555349!4d107.9244453?hl=en",
  "searchPageUrl": "https://www.google.com/maps/search/Bengkel+Sumedang/@37.0625,-95.677068,4z?hl=en",
  "searchString": "Bengkel Sumedang",
  "scrapedAt": "2022-04-19T05:34:17.824Z",
  "reviewsCount": 2,
  "reviewsDistribution": {
    "oneStar": 0,
    "twoStar": 0,
    "threeStar": 1,
    "fourStar": 0,
    "fiveStar": 1
  },
  "reviews": [],
  "orderBy": []
},
{
  "title": "Bengkel Mang Ade",
  "subTitle": null,
  "price": null,
  "menu": null,
  "categoryName": "Auto repair shop",
  "address": "4WPM+27M, Sukagalih, Sumedang Selatan, Sumedang Regency, West Java 45311, Indonesia             4WPM+27M, Sukagalih, Kec. Sumedang Sel., Kabupaten Sumedang, Jawa Barat 45311",
  "locatedIn": null,
  "neighborhood": "4WPM+27M",
  "street": "4WPM+27M",
  "city": "Sumedang Regency",
  "postalCode": "45311",
  "state": "West Java",
  "countryCode": "ID",
  "plusCode": null,
  "website": null,
  "phone": null,
  "temporarilyClosed": false,
  "location": {
    "lat": -6.8649137,
    "lng": 107.9331747
  },
  "permanentlyClosed": false,
  "totalScore": 5,
  "isAdvertisement": false,
  "rank": 18,
  "placeId": "ChIJFVu0cHLRaC4RZd7yKadVLzs",
  "categories": [
    "Auto repair shop"
  ],
  "cid": "4264721548594830949",
  "url": "https://www.google.com/maps/place/Bengkel+Mang+Ade/@-6.8649137,107.930986,17z/data=!3m1!4b1!4m5!3m4!1s0x2e68d17270b45b15:0x3b2f55a729f2de65!8m2!3d-6.8649137!4d107.9331747?hl=en",
  "searchPageUrl": "https://www.google.com/maps/search/Bengkel+Sumedang/@37.0625,-95.677068,4z?hl=en",
  "searchString": "Bengkel Sumedang",
  "scrapedAt": "2022-04-19T05:34:25.863Z",
  "reviewsCount": 4,
  "reviewsDistribution": {
    "oneStar": 0,
    "twoStar": 0,
    "threeStar": 0,
    "fourStar": 0,
    "fiveStar": 4
  },
  "reviews": [],
  "orderBy": []
},
{
  "title": "Bengkel Mobil Ambulance Sumedang",
  "subTitle": null,
  "price": null,
  "menu": null,
  "categoryName": "Auto repair shop",
  "address": "Seberang Warung Makan Pecel Lele Fabel, Jalan Prabu Gajah Agung No. 19 RT 4 - RW 4 Desa Situ, Utara, Patokan, Kec. Sumedang Utara, Kabupaten Sumedang, Jawa Barat 45621, Indonesia",
  "locatedIn": null,
  "neighborhood": "Seberang Warung Makan Pecel Lele Fabel, Jalan Prabu Gajah Agung No. 19 RT 4 - RW 4 Desa Situ",
  "street": "Seberang Warung Makan Pecel Lele Fabel, Jalan Prabu Gajah Agung No. 19 RT 4 - RW 4 Desa Situ",
  "city": "Sumedang Regency",
  "postalCode": "45621",
  "state": "West Java",
  "countryCode": "ID",
  "plusCode": "5WF9+3X Situ, Sumedang Regency, West Java, Indonesia",
  "website": "http://bengkel-mobil-ambulance-sumedang.business.site/",
  "phone": "+62 877-6067-6095",
  "temporarilyClosed": false,
  "location": {
    "lat": -6.8272682,
    "lng": 107.9199324
  },
  "permanentlyClosed": false,
  "totalScore": 5,
  "isAdvertisement": false,
  "rank": 17,
  "placeId": "ChIJ5Tqa_G7RaC4RW_-zcCldJc0",
  "categories": [
    "Auto repair shop",
    "Auto restoration service",
    "Auto spring shop",
    "Diesel engine repair service",
    "Small engine repair service"
  ],
  "cid": "14782323784479407963",
  "url": "https://www.google.com/maps/place/Bengkel+Mobil+Ambulance+Sumedang/@-6.8272682,107.9177437,17z/data=!3m1!4b1!4m5!3m4!1s0x2e68d16efc9a3ae5:0xcd255d2970b3ff5b!8m2!3d-6.8272682!4d107.9199324?hl=en",
  "searchPageUrl": "https://www.google.com/maps/search/Bengkel+Sumedang/@37.0625,-95.677068,4z?hl=en",
  "searchString": "Bengkel Sumedang",
  "scrapedAt": "2022-04-19T05:34:35.045Z",
  "reviewsCount": 13,
  "reviewsDistribution": {
    "oneStar": 0,
    "twoStar": 0,
    "threeStar": 0,
    "fourStar": 0,
    "fiveStar": 13
  },
  "reviews": [],
  "orderBy": []
},
{
  "title": "Bengkel A Dody",
  "subTitle": null,
  "price": null,
  "menu": null,
  "categoryName": "Car repair and maintenance",
  "address": "Rajawali No.16, Rancamulya, Kec. Sumedang Utara, Kabupaten Sumedang, Jawa Barat 45621, Indonesia",
  "locatedIn": null,
  "neighborhood": "Rajawali No.16",
  "street": "Rajawali No.16",
  "city": "Sumedang Regency",
  "postalCode": "45621",
  "state": "West Java",
  "countryCode": "ID",
  "plusCode": "5W5P+97 Rancamulya, Sumedang Regency, West Java, Indonesia",
  "website": null,
  "phone": "+62 813-2029-3108",
  "temporarilyClosed": false,
  "location": {
    "lat": -6.8415005,
    "lng": 107.9357432
  },
  "permanentlyClosed": false,
  "totalScore": 4.9,
  "isAdvertisement": false,
  "rank": 16,
  "placeId": "ChIJe5UMubzRaC4RbHQwco67pGs",
  "categories": [
    "Car repair and maintenance"
  ],
  "cid": "7756530678714365036",
  "url": "https://www.google.com/maps/place/Bengkel+A+Dody/@-6.8415005,107.9335545,17z/data=!3m1!4b1!4m5!3m4!1s0x2e68d1bcb90c957b:0x6ba4bb8e7230746c!8m2!3d-6.8414636!4d107.9357581?hl=en",
  "searchPageUrl": "https://www.google.com/maps/search/Bengkel+Sumedang/@37.0625,-95.677068,4z?hl=en",
  "searchString": "Bengkel Sumedang",
  "scrapedAt": "2022-04-19T05:34:44.028Z",
  "reviewsCount": 14,
  "reviewsDistribution": {
    "oneStar": 0,
    "twoStar": 0,
    "threeStar": 0,
    "fourStar": 2,
    "fiveStar": 12
  },
  "reviews": [],
  "orderBy": []
},
{
  "title": "Bengkel Las Kencana Jaya",
  "subTitle": null,
  "price": null,
  "menu": null,
  "categoryName": "Car repair and maintenance",
  "address": "Angkrek regency, Situ, Kec. Sumedang Utara, Kabupaten Sumedang, Jawa Barat 45621, Indonesia",
  "locatedIn": null,
  "neighborhood": "Angkrek regency",
  "street": "Angkrek regency",
  "city": "Sumedang Regency",
  "postalCode": "45621",
  "state": "West Java",
  "countryCode": "ID",
  "plusCode": "5WFC+2C Situ, Sumedang Regency, West Java, Indonesia",
  "website": null,
  "phone": "+62 812-1454-910",
  "temporarilyClosed": false,
  "location": {
    "lat": -6.8273957,
    "lng": 107.921114
  },
  "permanentlyClosed": false,
  "totalScore": 4,
  "isAdvertisement": false,
  "rank": 15,
  "placeId": "ChIJN_7yRzPRaC4ROJArRoDe64c",
  "categories": [
    "Car repair and maintenance"
  ],
  "cid": "9794166457161715768",
  "url": "https://www.google.com/maps/place/Bengkel+Las+Kencana+Jaya/@-6.8273957,107.9189253,17z/data=!3m1!4b1!4m5!3m4!1s0x2e68d13347f2fe37:0x87ebde80462b9038!8m2!3d-6.8273962!4d107.9211137?hl=en",
  "searchPageUrl": "https://www.google.com/maps/search/Bengkel+Sumedang/@37.0625,-95.677068,4z?hl=en",
  "searchString": "Bengkel Sumedang",
  "scrapedAt": "2022-04-19T05:34:52.213Z",
  "reviewsCount": 3,
  "reviewsDistribution": {
    "oneStar": 0,
    "twoStar": 1,
    "threeStar": 0,
    "fourStar": 0,
    "fiveStar": 2
  },
  "reviews": [],
  "orderBy": []
},
{
  "title": "Ade Motor",
  "subTitle": null,
  "price": null,
  "menu": null,
  "categoryName": "Car repair and maintenance",
  "address": "Jl. Mayor Abdurahman No.185, Kotakaler, Kec. Sumedang Utara, Kabupaten Sumedang, Jawa Barat 45621, Indonesia",
  "locatedIn": null,
  "neighborhood": "Jl. Mayor Abdurahman No.185",
  "street": "Jl. Mayor Abdurahman No.185",
  "city": "Sumedang Regency",
  "postalCode": "45621",
  "state": "West Java",
  "countryCode": "ID",
  "plusCode": "5W4G+P3 Kotakaler, Sumedang Regency, West Java, Indonesia",
  "website": null,
  "phone": "+62 261 201878",
  "temporarilyClosed": false,
  "location": {
    "lat": -6.8432345,
    "lng": 107.9252322
  },
  "permanentlyClosed": false,
  "totalScore": 4.6,
  "isAdvertisement": false,
  "rank": 14,
  "placeId": "ChIJx0_x7zbRaC4RedHVmw_7Pxk",
  "categories": [
    "Car repair and maintenance",
    "Repairs"
  ],
  "cid": "1819448818938532217",
  "url": "https://www.google.com/maps/place/Ade+Motor/@-6.8432345,107.9230435,17z/data=!3m1!4b1!4m5!3m4!1s0x2e68d136eff14fc7:0x193ffb0f9bd5d179!8m2!3d-6.8432345!4d107.9252322?hl=en",
  "searchPageUrl": "https://www.google.com/maps/search/Bengkel+Sumedang/@37.0625,-95.677068,4z?hl=en",
  "searchString": "Bengkel Sumedang",
  "scrapedAt": "2022-04-19T05:35:00.780Z",
  "reviewsCount": 72,
  "reviewsDistribution": {
    "oneStar": 0,
    "twoStar": 1,
    "threeStar": 5,
    "fourStar": 16,
    "fiveStar": 50
  },
  "reviews": [],
  "orderBy": []
},
{
  "title": "Kencana Mekar",
  "subTitle": null,
  "price": null,
  "menu": null,
  "categoryName": "Auto repair shop",
  "address": "Jl. Lkr. Dano, Situ, Kec. Sumedang Utara, Kabupaten Sumedang, Jawa Barat 45621, Indonesia",
  "locatedIn": null,
  "neighborhood": "Jl. Lkr. Dano",
  "street": "Jl. Lkr. Dano",
  "city": "Sumedang Regency",
  "postalCode": "45621",
  "state": "West Java",
  "countryCode": "ID",
  "plusCode": "5WCF+6V Situ, Sumedang Regency, West Java, Indonesia",
  "website": null,
  "phone": "+62 813-8341-6458",
  "temporarilyClosed": false,
  "location": {
    "lat": -6.8294726,
    "lng": 107.9246351
  },
  "permanentlyClosed": false,
  "totalScore": 4.5,
  "isAdvertisement": false,
  "rank": 13,
  "placeId": "ChIJwedW78vWaC4RThWr8M4K6BQ",
  "categories": [
    "Auto repair shop"
  ],
  "cid": "1506465959272715598",
  "url": "https://www.google.com/maps/place/Kencana+Mekar/@-6.8294726,107.9224464,17z/data=!3m1!4b1!4m5!3m4!1s0x2e68d6cbef56e7c1:0x14e80acef0ab154e!8m2!3d-6.8294773!4d107.9246247?hl=en",
  "searchPageUrl": "https://www.google.com/maps/search/Bengkel+Sumedang/@37.0625,-95.677068,4z?hl=en",
  "searchString": "Bengkel Sumedang",
  "scrapedAt": "2022-04-19T05:35:10.316Z",
  "reviewsCount": 12,
  "reviewsDistribution": {
    "oneStar": 0,
    "twoStar": 1,
    "threeStar": 1,
    "fourStar": 1,
    "fiveStar": 9
  },
  "reviews": [],
  "orderBy": []
},
{
  "title": "AD Motor 2 Sumedang",
  "subTitle": null,
  "price": null,
  "menu": null,
  "categoryName": "Motorcycle repair shop",
  "address": "Jl. Raya Cirebon - Bandung No.231, Kotakaler, Kec. Sumedang Utara, Kabupaten Sumedang, Jawa Barat 45621, Indonesia",
  "locatedIn": null,
  "neighborhood": "Jl. Raya Cirebon - Bandung No.231",
  "street": "Jl. Raya Cirebon - Bandung No.231",
  "city": "Sumedang Regency",
  "postalCode": "45621",
  "state": "West Java",
  "countryCode": "ID",
  "plusCode": "5W8J+4F Kotakaler, Sumedang Regency, West Java, Indonesia",
  "website": null,
  "phone": "+62 821-2150-0052",
  "temporarilyClosed": false,
  "location": {
    "lat": -6.8346898,
    "lng": 107.9312
  },
  "permanentlyClosed": false,
  "totalScore": 4.6,
  "isAdvertisement": false,
  "rank": 12,
  "placeId": "ChIJO3XdxkrRaC4RNM_6Uyn4PYE",
  "categories": [
    "Motorcycle repair shop"
  ],
  "cid": "9312872460858347316",
  "url": "https://www.google.com/maps/place/AD+Motor+2+Sumedang/@-6.8346898,107.9290113,17z/data=!3m1!4b1!4m5!3m4!1s0x2e68d14ac6dd753b:0x813df82953facf34!8m2!3d-6.8346898!4d107.9312?hl=en",
  "searchPageUrl": "https://www.google.com/maps/search/Bengkel+Sumedang/@37.0625,-95.677068,4z?hl=en",
  "searchString": "Bengkel Sumedang",
  "scrapedAt": "2022-04-19T05:35:19.266Z",
  "reviewsCount": 32,
  "reviewsDistribution": {
    "oneStar": 1,
    "twoStar": 0,
    "threeStar": 2,
    "fourStar": 6,
    "fiveStar": 23
  },
  "reviews": [],
  "orderBy": []
},
{
  "title": "Bengkel Mobil",
  "subTitle": null,
  "price": null,
  "menu": null,
  "categoryName": "Car repair and maintenance",
  "address": "Jl. Sebelas April, Situ, Kec. Sumedang Utara, Kabupaten Sumedang, Jawa Barat 45621, Indonesia",
  "locatedIn": null,
  "neighborhood": "Jl. Sebelas April",
  "street": "Jl. Sebelas April",
  "city": "Sumedang Regency",
  "postalCode": "45621",
  "state": "West Java",
  "countryCode": "ID",
  "plusCode": "5WC9+3R Situ, Sumedang Regency, West Java, Indonesia",
  "website": null,
  "phone": null,
  "temporarilyClosed": false,
  "location": {
    "lat": -6.8297505,
    "lng": 107.9195985
  },
  "permanentlyClosed": false,
  "totalScore": 4.8,
  "isAdvertisement": false,
  "rank": 11,
  "placeId": "ChIJ0cMVvMvWaC4RzxVpDJpLVF8",
  "categories": [
    "Car repair and maintenance",
    "Repairs"
  ],
  "cid": "6869198456652109263",
  "url": "https://www.google.com/maps/place/Bengkel+Mobil/@-6.8297505,107.9174098,17z/data=!3m1!4b1!4m5!3m4!1s0x2e68d6cbbc15c3d1:0x5f544b9a0c6915cf!8m2!3d-6.8297162!4d107.9194305?hl=en",
  "searchPageUrl": "https://www.google.com/maps/search/Bengkel+Sumedang/@37.0625,-95.677068,4z?hl=en",
  "searchString": "Bengkel Sumedang",
  "scrapedAt": "2022-04-19T05:35:27.820Z",
  "reviewsCount": 6,
  "reviewsDistribution": {
    "oneStar": 0,
    "twoStar": 0,
    "threeStar": 0,
    "fourStar": 1,
    "fiveStar": 5
  },
  "reviews": [],
  "orderBy": []
},
{
  "title": "Bengkel Suryana motor",
  "subTitle": null,
  "price": null,
  "menu": null,
  "categoryName": "Auto repair shop",
  "address": "Rancamulya, Sumedang Utara, Sumedang Regency, West Java 45621, Indonesia             Rancamulya, Kec. Sumedang Utara, Kabupaten Sumedang, Jawa Barat 45621",
  "locatedIn": null,
  "neighborhood": null,
  "street": null,
  "city": "Sumedang Regency",
  "postalCode": "45621",
  "state": "West Java",
  "countryCode": "ID",
  "plusCode": "5W3Q+F8 Rancamulya, Sumedang Regency, West Java, Indonesia",
  "website": null,
  "phone": "+62 852-2003-5627",
  "temporarilyClosed": false,
  "location": {
    "lat": -6.8462598,
    "lng": 107.9383695
  },
  "permanentlyClosed": false,
  "totalScore": 5,
  "isAdvertisement": false,
  "rank": 10,
  "placeId": "ChIJG0CWQe3RaC4RbSSfbIZ5ick",
  "categories": [
    "Auto repair shop"
  ],
  "cid": "14522272091687822445",
  "url": "https://www.google.com/maps/place/Bengkel+Suryana+motor/@-6.8462598,107.9361808,17z/data=!3m1!4b1!4m5!3m4!1s0x2e68d1ed4196401b:0xc98979866c9f246d!8m2!3d-6.8462635!4d107.9383483?hl=en",
  "searchPageUrl": "https://www.google.com/maps/search/Bengkel+Sumedang/@37.0625,-95.677068,4z?hl=en",
  "searchString": "Bengkel Sumedang",
  "scrapedAt": "2022-04-19T05:35:37.034Z",
  "reviewsCount": 2,
  "reviewsDistribution": {
    "oneStar": 0,
    "twoStar": 0,
    "threeStar": 0,
    "fourStar": 0,
    "fiveStar": 2
  },
  "reviews": [],
  "orderBy": []
},
{
  "title": "Shell Helix Autocare Usma Harta",
  "subTitle": null,
  "price": null,
  "menu": null,
  "categoryName": "Car Service Station",
  "address": "Jalan Raya Jl. Prabu Gajah Agung No.9, Situ, Kec. Sumedang Utara, Kabupaten Sumedang, Jawa Barat 45323, Indonesia",
  "locatedIn": null,
  "neighborhood": "Jalan Raya Jl. Prabu Gajah Agung No.9",
  "street": "Jalan Raya Jl. Prabu Gajah Agung No.9",
  "city": "Sumedang Regency",
  "postalCode": "45323",
  "state": "West Java",
  "countryCode": "ID",
  "plusCode": "5WCG+62 Situ, Sumedang Regency, West Java, Indonesia",
  "website": "https://share.shell.com/consumer/id/Forms/WhereToBuy.aspx",
  "phone": "+62 813-9429-5657",
  "temporarilyClosed": false,
  "location": {
    "lat": -6.8294753,
    "lng": 107.9250142
  },
  "permanentlyClosed": false,
  "totalScore": 4.3,
  "isAdvertisement": false,
  "rank": 9,
  "placeId": "ChIJ2bXra-nXaC4RzTmYOYN5Fkw",
  "categories": [
    "Auto repair shop"
  ],
  "cid": "5482703200884111821",
  "url": "https://www.google.com/maps/place/Shell+Helix+Autocare+Usma+Harta/@-6.8294753,107.9228255,17z/data=!3m1!4b1!4m5!3m4!1s0x2e68d7e96bebb5d9:0x4c167983399839cd!8m2!3d-6.8294752!4d107.9250143?hl=en",
  "searchPageUrl": "https://www.google.com/maps/search/Bengkel+Sumedang/@37.0625,-95.677068,4z?hl=en",
  "searchString": "Bengkel Sumedang",
  "scrapedAt": "2022-04-19T05:35:46.498Z",
  "reviewsCount": 12,
  "reviewsDistribution": {
    "oneStar": 0,
    "twoStar": 0,
    "threeStar": 1,
    "fourStar": 6,
    "fiveStar": 5
  },
  "reviews": [],
  "orderBy": []
},
{
  "title": "Bengkel Mobil Ilham Anugrah",
  "subTitle": null,
  "price": null,
  "menu": null,
  "categoryName": "Car Service Station",
  "address": "Jl. Serma Muchtar, Situ, Kec. Sumedang Utara, Kabupaten Sumedang, Jawa Barat 45621, Indonesia",
  "locatedIn": null,
  "neighborhood": "Jl. Serma Muchtar",
  "street": "Jl. Serma Muchtar",
  "city": "Sumedang Regency",
  "postalCode": "45621",
  "state": "West Java",
  "countryCode": "ID",
  "plusCode": "5W58+47 Situ, Sumedang Regency, West Java, Indonesia",
  "website": null,
  "phone": "+62 878-3500-8133",
  "temporarilyClosed": false,
  "location": {
    "lat": -6.8422477,
    "lng": 107.9157043
  },
  "permanentlyClosed": false,
  "totalScore": 4.5,
  "isAdvertisement": false,
  "rank": 8,
  "placeId": "ChIJ2Z5D1krRaC4RTNBfB_QklLY",
  "categories": [
    "Auto repair shop"
  ],
  "cid": "13156181041970401356",
  "url": "https://www.google.com/maps/place/Bengkel+Mobil+Ilham+Anugrah/@-6.8422477,107.9135156,17z/data=!3m1!4b1!4m5!3m4!1s0x2e68d14ad6439ed9:0xb69424f4075fd04c!8m2!3d-6.8422532!4d107.9157235?hl=en",
  "searchPageUrl": "https://www.google.com/maps/search/Bengkel+Sumedang/@37.0625,-95.677068,4z?hl=en",
  "searchString": "Bengkel Sumedang",
  "scrapedAt": "2022-04-19T05:35:55.072Z",
  "reviewsCount": 44,
  "reviewsDistribution": {
    "oneStar": 3,
    "twoStar": 1,
    "threeStar": 3,
    "fourStar": 3,
    "fiveStar": 34
  },
  "reviews": [],
  "orderBy": []
},
{
  "title": "Bengkel Mobil Pak Utja Putra",
  "subTitle": null,
  "price": null,
  "menu": null,
  "categoryName": "Car repair and maintenance",
  "address": "Jl. Tampomas, Kotakaler, Kec. Sumedang Utara, Kabupaten Sumedang, Jawa Barat 45621, Indonesia",
  "locatedIn": null,
  "neighborhood": "Jl. Tampomas",
  "street": "Jl. Tampomas",
  "city": "Sumedang Regency",
  "postalCode": "45621",
  "state": "West Java",
  "countryCode": "ID",
  "plusCode": "5W5G+9H Kotakaler, Sumedang Regency, West Java, Indonesia",
  "website": null,
  "phone": "+62 812-2092-9209",
  "temporarilyClosed": false,
  "location": {
    "lat": -6.8415104,
    "lng": 107.9264855
  },
  "permanentlyClosed": false,
  "totalScore": 4.7,
  "isAdvertisement": false,
  "rank": 7,
  "placeId": "ChIJedC7_zbRaC4Ru_AUZYBlPpk",
  "categories": [
    "Car repair and maintenance"
  ],
  "cid": "11042374938485125307",
  "url": "https://www.google.com/maps/place/Bengkel+Mobil+Pak+Utja+Putra/@-6.8415104,107.9242968,17z/data=!3m1!4b1!4m5!3m4!1s0x2e68d136ffbbd079:0x993e65806514f0bb!8m2!3d-6.8415174!4d107.9265073?hl=en",
  "searchPageUrl": "https://www.google.com/maps/search/Bengkel+Sumedang/@37.0625,-95.677068,4z?hl=en",
  "searchString": "Bengkel Sumedang",
  "scrapedAt": "2022-04-19T05:36:03.922Z",
  "reviewsCount": 16,
  "reviewsDistribution": {
    "oneStar": 0,
    "twoStar": 0,
    "threeStar": 2,
    "fourStar": 1,
    "fiveStar": 13
  },
  "reviews": [],
  "orderBy": []
},
{
  "title": "Bengkel Mobil",
  "subTitle": null,
  "price": null,
  "menu": null,
  "categoryName": "Car repair and maintenance",
  "address": "Jl. P. Kornel, Kotakulon, Kec. Sumedang Sel., Kabupaten Sumedang, Jawa Barat 45311, Indonesia",
  "locatedIn": null,
  "neighborhood": "Jl. P. Kornel",
  "street": "Jl. P. Kornel",
  "city": "Sumedang Regency",
  "postalCode": "45311",
  "state": "West Java",
  "countryCode": "ID",
  "plusCode": "4WQ7+MC Kotakulon, Sumedang Regency, West Java, Indonesia",
  "website": null,
  "phone": null,
  "temporarilyClosed": false,
  "location": {
    "lat": -6.860814,
    "lng": 107.913584
  },
  "permanentlyClosed": false,
  "totalScore": 3.7,
  "isAdvertisement": false,
  "rank": 6,
  "placeId": "ChIJO7uExBvRaC4RPbb8dSG2Ees",
  "categories": [
    "Car repair and maintenance",
    "Repairs"
  ],
  "cid": "16938519928346818109",
  "url": "https://www.google.com/maps/place/Bengkel+Mobil/@-6.860814,107.9113953,17z/data=!3m1!4b1!4m5!3m4!1s0x2e68d11bc484bb3b:0xeb11b62175fcb63d!8m2!3d-6.860814!4d107.913584?hl=en",
  "searchPageUrl": "https://www.google.com/maps/search/Bengkel+Sumedang/@37.0625,-95.677068,4z?hl=en",
  "searchString": "Bengkel Sumedang",
  "scrapedAt": "2022-04-19T05:36:12.032Z",
  "reviewsCount": 7,
  "reviewsDistribution": {
    "oneStar": 1,
    "twoStar": 0,
    "threeStar": 1,
    "fourStar": 3,
    "fiveStar": 2
  },
  "reviews": [],
  "orderBy": []
},
{
  "title": "Bengkel Mobil Metik Sumedang",
  "subTitle": null,
  "price": null,
  "menu": null,
  "categoryName": "Car Service Station",
  "address": "Jl. Prabu Gajah Agung No.19, Situ, Kec. Sumedang Utara, Kabupaten Sumedang, Jawa Barat 45621, Indonesia",
  "locatedIn": null,
  "neighborhood": "Jl. Prabu Gajah Agung No.19",
  "street": "Jl. Prabu Gajah Agung No.19",
  "city": "Sumedang Regency",
  "postalCode": "45621",
  "state": "West Java",
  "countryCode": "ID",
  "plusCode": "5W8H+9C Situ, Sumedang Regency, West Java, Indonesia",
  "website": null,
  "phone": "+62 812-1482-6722",
  "temporarilyClosed": false,
  "location": {
    "lat": -6.8340296,
    "lng": 107.9285807
  },
  "permanentlyClosed": false,
  "totalScore": 5,
  "isAdvertisement": false,
  "rank": 3,
  "placeId": "ChIJUfRyvvLRaC4RpkCvTA1fer8",
  "categories": [
    "Auto repair shop"
  ],
  "cid": "13797444919128703142",
  "url": "https://www.google.com/maps/place/Bengkel+Mobil+Metik+Sumedang/@-6.8340296,107.926392,17z/data=!3m1!4b1!4m5!3m4!1s0x2e68d1f2be72f451:0xbf7a5f0d4caf40a6!8m2!3d-6.8340296!4d107.9285807?hl=en",
  "searchPageUrl": "https://www.google.com/maps/search/Bengkel+Sumedang/@37.0625,-95.677068,4z?hl=en",
  "searchString": "Bengkel Sumedang",
  "scrapedAt": "2022-04-19T05:36:20.504Z",
  "reviewsCount": 1,
  "reviewsDistribution": {
    "oneStar": 0,
    "twoStar": 0,
    "threeStar": 0,
    "fourStar": 0,
    "fiveStar": 1
  },
  "reviews": [],
  "orderBy": []
},
{
  "title": "Bengkel Mobil CV Jembar Jaya",
  "subTitle": null,
  "price": null,
  "menu": null,
  "categoryName": "Auto body shop",
  "address": "Jl. Prabu Gajah Agung No.15, Kotakaler, Kec. Sumedang Utara, Kabupaten Sumedang, Jawa Barat 45322, Indonesia",
  "locatedIn": null,
  "neighborhood": "Jl. Prabu Gajah Agung No.15",
  "street": "Jl. Prabu Gajah Agung No.15",
  "city": "Sumedang Regency",
  "postalCode": "45322",
  "state": "West Java",
  "countryCode": "ID",
  "plusCode": "5W8H+G9 Kotakaler, Sumedang Regency, West Java, Indonesia",
  "website": "https://bengkel-mobil-cvjembar-jaya.business.site/?utm_source=gmb&utm_medium=referral",
  "phone": "+62 261 2148282",
  "temporarilyClosed": false,
  "location": {
    "lat": -6.8336531,
    "lng": 107.9284384
  },
  "permanentlyClosed": false,
  "totalScore": 4.3,
  "isAdvertisement": false,
  "rank": 2,
  "placeId": "ChIJK50dtMrWaC4RFt-PXj_JOBw",
  "categories": [
    "Auto body shop"
  ],
  "cid": "2033596505764388630",
  "url": "https://www.google.com/maps/place/Bengkel+Mobil+CV+Jembar+Jaya/@-6.8336531,107.9262497,17z/data=!3m1!4b1!4m5!3m4!1s0x2e68d6cab41d9d2b:0x1c38c93f5e8fdf16!8m2!3d-6.8336531!4d107.9284384?hl=en",
  "searchPageUrl": "https://www.google.com/maps/search/Bengkel+Sumedang/@37.0625,-95.677068,4z?hl=en",
  "searchString": "Bengkel Sumedang",
  "scrapedAt": "2022-04-19T05:36:29.073Z",
  "reviewsCount": 27,
  "reviewsDistribution": {
    "oneStar": 2,
    "twoStar": 0,
    "threeStar": 3,
    "fourStar": 5,
    "fiveStar": 17
  },
  "reviews": [],
  "orderBy": []
},
{
  "title": "BENGKEL MOBIL SUMEDANG GILANG KENCANA MOTOR",
  "subTitle": null,
  "price": null,
  "menu": null,
  "categoryName": "Car Service Station",
  "address": "Jl. Prabu Gajah Agung No.19, Situ, Kec. Sumedang Utara, Kabupaten Sumedang, Jawa Barat 45621, Indonesia",
  "locatedIn": null,
  "neighborhood": "Jl. Prabu Gajah Agung No.19",
  "street": "Jl. Prabu Gajah Agung No.19",
  "city": "Sumedang Regency",
  "postalCode": "45621",
  "state": "West Java",
  "countryCode": "ID",
  "plusCode": "5WF9+3W Situ, Sumedang Regency, West Java, Indonesia",
  "website": "https://bengkel-mobil-sumedang-gilang-kencana-motor.business.site/",
  "phone": "+62 877-6067-6095",
  "temporarilyClosed": false,
  "location": {
    "lat": -6.8272935,
    "lng": 107.9198479
  },
  "permanentlyClosed": false,
  "totalScore": 5,
  "isAdvertisement": false,
  "rank": 1,
  "placeId": "ChIJvcWCLgjXaC4RO3GAWmLIFyE",
  "categories": [
    "Auto repair shop"
  ],
  "cid": "2384594852466684219",
  "url": "https://www.google.com/maps/place/BENGKEL+MOBIL+SUMEDANG+GILANG+KENCANA+MOTOR/@-6.8272935,107.9176592,17z/data=!3m1!4b1!4m5!3m4!1s0x2e68d7082e82c5bd:0x2117c8625a80713b!8m2!3d-6.8273067!4d107.9198697?hl=en",
  "searchPageUrl": "https://www.google.com/maps/search/Bengkel+Sumedang/@37.0625,-95.677068,4z?hl=en",
  "searchString": "Bengkel Sumedang",
  "scrapedAt": "2022-04-19T05:36:37.743Z",
  "reviewsCount": 95,
  "reviewsDistribution": {
    "oneStar": 1,
    "twoStar": 0,
    "threeStar": 0,
    "fourStar": 1,
    "fiveStar": 93
  },
  "reviews": [],
  "orderBy": [
    {
      "name": "wa.me",
      "url": "https://wa.me/c/6287760676095"
    }
  ]
}]